{"type":"FeatureCollection","features":[
{"type":"Feature","geometry":{"type":"Point","coordinates":[120.9775262,14.5963832]},"properties":{"amenity":"ferry_terminal","check_date":"2023-04-28","ferry":"yes","name":"Escolta","public_transport":"stop_position","source":"survey;maxar;mmdaprfs"}},
{"type":"Feature","geometry":{"type":"Point","coordinates":[121.0520359,14.6508622]},"properties":{"bus":"yes","name":"Quezon City Hall","operator":"Lungsod Quezon","public_transport":"stop_position","route_ref":"QC5"}},
{"type":"Feature","geometry":{"type":"Point","coordinates":[120.6151819,16.4164596]},"properties":{"bus":"yes","name":"Liteng PUJ Terminal","public_transport":"stop_position"}},
{"type":"Feature","geometry":{"type":"Point","coordinates":[120.6065007,16.407881]},"properties":{"bus":"yes","highway":"bus_stop","name":"BENECO Main Office","network":"PH:CAR:Baguio","public_transport":"stop_position"}},
{"type":"Feature","geometry":{"type":"Point","coordinates":[121.0742815,14.6269192]},"properties":{"bus":"yes","name":"Katipunan","network":"PUB;QCityBus","operator":"Lungsod Quezon","public_transport":"stop_position"}},
{"type":"Feature","geometry":{"type":"Point","coordinates":[118.7358294,9.7449166]},"properties":{"amenity":"ferry_terminal","cargo":"passengers;vehicle","ferry":"yes","mooring":"ferry","name":"Puerto Princesa","public_transport":"stop_position","source":"SRTM"}},
{"type":"Feature","geometry":{"type":"Point","coordinates":[125.1556163,6.0922583]},"properties":{"amenity":"ferry_terminal","cargo":"passengers;vehicle","ferry":"yes","name":"General Santos","public_transport":"stop_position"}},
{"type":"Feature","geometry":{"type":"Point","coordinates":[123.7114021,13.1478156]},"properties":{"amenity":"bus_station","name":"Daraga Bus Station","tourism":"hotel"}},
{"type":"Feature","geometry":{"type":"Point","coordinates":[122.3692274,11.7005521]},"properties":{"amenity":"bus_station","name":"Jeepney Station"}},
{"type":"Feature","geometry":{"type":"Point","coordinates":[122.3671125,11.7003744]},"properties":{"amenity":"bus_station","operator":"Ceres Liner"}},
{"type":"Feature","geometry":{"type":"Point","coordinates":[121.9392627,11.9405879]},"properties":{"name":"Vans","public_transport":"platform"}},
{"type":"Feature","geometry":{"type":"Point","coordinates":[124.2750767,11.5645444]},"properties":{"amenity":"ferry_terminal","cargo":"passengers","ferry":"yes","mooring":"ferry","public_transport":"stop_position"}},
{"type":"Feature","geometry":{"type":"Point","coordinates":[124.8794509,11.773013]},"properties":{"amenity":"ferry_terminal","cargo":"passengers","ferry":"yes","name":"Catbalogan Inter-island Passenger Terminal","public_transport":"stop_position"}},
{"type":"Feature","geometry":{"type":"Point","coordinates":[120.6166534,16.3838729]},"properties":{"bus":"yes","highway":"bus_stop","name":"MOOG Philippines","public_transport":"stop_position"}},
{"type":"Feature","geometry":{"type":"Point","coordinates":[120.6039572,16.3596881]},"properties":{"bus":"yes","highway":"bus_stop","name":"Camp 6 Elementary School","public_transport":"stop_position"}},
{"type":"Feature","geometry":{"type":"Point","coordinates":[120.9446826,14.3514506]},"properties":{"bus":"yes","name":"Summerwind 2-3","public_transport":"stop_position"}},
{"type":"Feature","geometry":{"type":"Point","coordinates":[120.6001814,16.4080617]},"properties":{"bus":"yes","highway":"bus_stop","name":"Session SM Mall","public_transport":"stop_position"}},
{"type":"Feature","geometry":{"type":"Point","coordinates":[120.984472,14.3405335]},"properties":{"bus":"yes","name":"Salawag Depot","public_transport":"stop_position","share_taxi":"yes"}},
{"type":"Feature","geometry":{"type":"Point","coordinates":[120.9841166,14.3408553]},"properties":{"bus":"yes","name":"Salawag Depot","public_transport":"stop_position","route_ref":"32;417"}},
{"type":"Feature","geometry":{"type":"Point","coordinates":[121.2364493,14.1795553]},"properties":{"public_transport":"stop_position","share_taxi":"yes"}},
{"type":"Feature","geometry":{"type":"Point","coordinates":[120.5910044,16.400835]},"properties":{"bus":"yes","highway":"bus_stop","name":"Imelda R. Marcos & Ferdinand","public_transport":"stop_position"}},
{"type":"Feature","geometry":{"type":"Point","coordinates":[120.6023393,15.8774504]},"properties":{"amenity":"bus_station","name":"Bus Terminal"}},
{"type":"Feature","geometry":{"type":"Point","coordinates":[120.9822036,14.5463104]},"properties":{"bus":"yes","highway":"bus_stop","name":"GSIS Complex","public_transport":"platform"}},
{"type":"Feature","geometry":{"type":"Point","coordinates":[121.0227017,14.4241593]},"properties":{"bus":"yes","highway":"bus_stop","name":"Investment Drive (at Parktrade Centre)","network":"LTFRB National Capital Region","network:wikidata":"Q6483998","public_transport":"platform","shelter":"no"}},
{"type":"Feature","geometry":{"type":"Point","coordinates":[121.0005884,14.5389519]},"properties":{"light_rail":"yes","name":"EDSA","name:zh":"乙沙","public_transport":"stop_position","railway":"stop"}},
{"type":"Feature","geometry":{"type":"Point","coordinates":[121.003714,14.6037284]},"properties":{"bus":"yes","name":"Stop n' Shop Turning Point","network":"PUJ","public_transport":"stop_position"}},
{"type":"Feature","geometry":{"type":"Point","coordinates":[121.0432749,14.635333]},"properties":{"addr:city":"Quezon City","addr:street":"EDSA","light_rail":"yes","name":"GMA Kamuning","public_transport":"stop_position","railway":"stop"}},
{"type":"Feature","geometry":{"type":"Point","coordinates":[120.9924377,14.48497]},"properties":{"bus":"yes","name":"SM Sucat Building B","public_transport":"stop_position"}},
{"type":"Feature","geometry":{"type":"Point","coordinates":[121.0488372,14.5346618]},"properties":{"bus":"yes","name":"Florence Way","public_transport":"stop_position"}},
{"type":"Feature","geometry":{"type":"Point","coordinates":[121.0473379,14.5351727]},"properties":{"bus":"yes","name":"Upper McKinley Gate 3","public_transport":"stop_position"}},
{"type":"Feature","geometry":{"type":"Point","coordinates":[121.0114002,14.4551268]},"properties":{"bus":"yes","highway":"bus_stop","name":"Presentation of the Child Jesus Parish Church","public_transport":"stop_position"}},
{"type":"Feature","geometry":{"type":"Point","coordinates":[121.040883,14.4148482]},"properties":{"bus":"yes","name":"Festival Alabang Departures","public_transport":"stop_position"}},
{"type":"Feature","geometry":{"type":"Point","coordinates":[121.0409836,14.414871]},"properties":{"bus":"yes","name":"Festival Alabang Arrivals","public_transport":"stop_position"}},
{"type":"Feature","geometry":{"type":"Point","coordinates":[121.3259646,14.0666516]},"properties":{"bus":"yes","name":"Ultimart San Pablo","public_transport":"stop_position","share_taxi":"yes"}},
{"type":"Feature","geometry":{"type":"Point","coordinates":[121.2443054,14.1689667]},"properties":{"bus":"yes","public_transport":"stop_position"}},
{"type":"Feature","geometry":{"type":"Point","coordinates":[121.2433227,14.1739843]},"properties":{"bench":"yes","departures_board":"no","highway":"bus_stop","level":"0","name":"Lopez Elementary School","public_transport":"platform","shelter":"yes"}},
{"type":"Feature","geometry":{"type":"Point","coordinates":[121.2387567,14.1665188]},"properties":{"bus":"yes","public_transport":"stop_position"}},
{"type":"Feature","geometry":{"type":"Point","coordinates":[121.0340288,14.3356888]},"properties":{"name":"Carmona","operator":"Philippine National Railways","public_transport":"stop_position","railway":"station","tactile_paving":"no","train":"yes","wikidata":"Q27963031","wikipedia":"en:Carmona station"}},
{"type":"Feature","geometry":{"type":"Point","coordinates":[121.2431098,14.1747717]},"properties":{"highway":"bus_stop","public_transport":"platform","shelter":"no"}},
{"type":"Feature","geometry":{"type":"Point","coordinates":[121.240248,14.1817952]},"properties":{"alt_name":"UP Los Baños;Junction","name":"College","public_transport":"stop_position","railway":"stop"}},
{"type":"Feature","geometry":{"type":"Point","coordinates":[121.2429511,14.1753153]},"properties":{"bench":"no","bin":"no","highway":"bus_stop","lit":"no","name":"BPI Family Savings Bank","public_transport":"platform","shelter":"no"}},
{"type":"Feature","geometry":{"type":"Point","coordinates":[121.0418183,14.7237525]},"properties":{"addr:city":"Kalookan","addr:postcode":"1400","addr:province":"Metro Manila","amenity":"bus_station","fixme":"name","source":"jklinc"}},
{"type":"Feature","geometry":{"type":"Point","coordinates":[120.9805268,14.6539312]},"properties":{"amenity":"bus_station","garmin:description":"bus station","is_in:city":"Kalookan","is_in:region":"Ncr","is_in:zip":"1400","name":"Victory Lines Incorporation","source":"jklinc","source:url":"http://www.freewebs.com/phroadguide/"}},
{"type":"Feature","geometry":{"type":"Point","coordinates":[120.9738164,14.6587241]},"properties":{"addr:street":"Samson Road","is_in:city":"Malabon","is_in:region":"Ncr","is_in:zip":"1470","name":"Caloocan PNR Station","railway":"station","source":"jklinc"}},
{"type":"Feature","geometry":{"type":"Point","coordinates":[120.9804808,14.6541251]},"properties":{"amenity":"bus_station","garmin:description":"bus station","is_in:city":"Kalookan","is_in:region":"Ncr","is_in:zip":"1400","name":"Victory Liner Caloocan Bus Terminal","source":"jklinc","source:url":"http://www.freewebs.com/phroadguide/"}},
{"type":"Feature","geometry":{"type":"Point","coordinates":[120.9644642,14.6308182]},"properties":{"addr:city":"Manila","addr:province":"Metro Manila","amenity":"bus_station","name":"Mcl Bus Terminal"}},
{"type":"Feature","geometry":{"type":"Point","coordinates":[121.003208,14.5120125]},"properties":{"bus":"yes","highway":"bus_stop","name":"Ninoy Aquino/Sun Valley Drive","network":"LTFRB PUB","network:wikidata":"Q6483998","public_transport":"platform"}},
{"type":"Feature","geometry":{"type":"Point","coordinates":[121.0650862,14.7353017]},"properties":{"addr:city":"Caloocan","addr:postcode":"1400","addr:state":"NCR","amenity":"bus_station","garmin:description":"bus station","name":"Santrans Terminal","source":"jklinc","source:url":"http://www.freewebs.com/phroadguide/"}},
{"type":"Feature","geometry":{"type":"Point","coordinates":[120.967117,14.647081]},"properties":{"amenity":"bus_station","is_in:city":"Malabon","is_in:region":"Ncr","is_in:zip":"1470","source":"jklinc","source:url":"http://www.freewebs.com/phroadguide/"}},
{"type":"Feature","geometry":{"type":"Point","coordinates":[121.0067003,14.5389125]},"properties":{"bus":"yes","name":"Victory Liner Pasay Terminal","network":"PH","public_transport":"stop_position"}},
{"type":"Feature","geometry":{"type":"Point","coordinates":[120.9840252,14.6400889]},"properties":{"amenity":"bus_station","garmin:description":"bus station","is_in:city":"Kalookan","is_in:region":"Ncr","is_in:zip":"1400","name":"Phil. Rabbit Bus Lines Terminal","source":"Benta Serbisyo","source:url":"http://www.bentaserbisyo.com/"}},
{"type":"Feature","geometry":{"type":"Point","coordinates":[120.5034535,16.3765605]},"properties":{"bus":"yes","name":"Taloy Sur Barangay Hall","public_transport":"stop_position"}},
{"type":"Feature","geometry":{"type":"Point","coordinates":[120.4976509,16.3637184]},"properties":{"bus":"yes","name":"Jeepney Stop","public_transport":"stop_position"}},
{"type":"Feature","geometry":{"type":"Point","coordinates":[120.4935251,16.3429821]},"properties":{"bus":"yes","name":"Palina Elementary School","public_transport":"stop_position"}},
{"type":"Feature","geometry":{"type":"Point","coordinates":[120.4948246,16.3347327]},"properties":{"alt_name":"Turning Point","bus":"yes","name":"Pugo Poblacion East","public_transport":"stop_position"}},
{"type":"Feature","geometry":{"type":"Point","coordinates":[120.9545436,14.7538157]},"properties":{"bus":"yes","highway":"bus_stop","name":"SM City Marilao","public_transport":"platform"}},
{"type":"Feature","geometry":{"type":"Point","coordinates":[121.0347309,14.2973405]},"properties":{"bus":"yes","name":"San Lazaro Leisure and Business Park","public_transport":"stop_position"}},
{"type":"Feature","geometry":{"type":"Point","coordinates":[120.6268463,16.4197564]},"properties":{"bus":"yes","name":"Mines View Park","public_transport":"stop_position"}},
{"type":"Feature","geometry":{"type":"Point","coordinates":[120.5976508,16.4082942]},"properties":{"bus":"yes","highway":"bus_stop","name":"Baguio City National High School Gate 8","public_transport":"stop_position"}},
{"type":"Feature","geometry":{"type":"Point","coordinates":[123.3009866,9.4591756]},"properties":{"alt_name":"Samboan","amenity":"ferry_terminal","cargo":"passengers;vehicle","ferry":"yes","mooring":"ferry","name":"Bato","public_transport":"stop_position"}},
{"type":"Feature","geometry":{"type":"Point","coordinates":[123.5120436,9.2189098]},"properties":{"amenity":"ferry_terminal","cargo":"passengers;vehicle","ferry":"yes","mooring":"ferry","name":"Siquijor","public_transport":"stop_position"}},
{"type":"Feature","geometry":{"type":"Point","coordinates":[120.8635251,14.3948215]},"properties":{"bus":"yes","name":"Opp Alfamart Tejero","public_transport":"stop_position"}},
{"type":"Feature","geometry":{"type":"Point","coordinates":[121.1327847,13.8183007]},"properties":{"bus":"yes","name":"Ibaan Bayan","network":"ALPS;Batangas North","public_transport":"stop_position","share_taxi":"yes"}},
{"type":"Feature","geometry":{"type":"Point","coordinates":[121.1334775,13.8188311]},"properties":{"bus":"yes","name":"Recto Gym","network":"PH:PUB;PH:PUJ:Batangas","operator":"Municipality of Ibaan","public_transport":"stop_position","share_taxi":"yes"}},
{"type":"Feature","geometry":{"type":"Point","coordinates":[120.9546848,14.3362984]},"properties":{"bus":"yes","highway":"bus_stop","name":"Santa Lucia East","public_transport":"stop_position","share_taxi":"yes"}},
{"type":"Feature","geometry":{"type":"Point","coordinates":[123.893576,10.2983027]},"properties":{"bus":"yes","name":"Cebu South Bus Terminal","public_transport":"stop_position"}},
{"type":"Feature","geometry":{"type":"Point","coordinates":[123.9089005,10.2925398]},"properties":{"amenity":"ferry_terminal","ferry":"yes","mooring":"ferry","name":"Cebu Pier 1","public_transport":"stop_position"}},
{"type":"Feature","geometry":{"type":"Point","coordinates":[121.3147099,14.1452799]},"properties":{"bus":"yes","public_transport":"stop_position"}},
{"type":"Feature","geometry":{"type":"Point","coordinates":[121.0461779,14.6492513]},"properties":{"bus":"yes","highway":"bus_stop","name":"Quezon Avenue & Lung Center of the Philippines","network":"LTFRB–National Capital Region","network:wikidata":"Q6483998","public_transport":"platform","route_ref":"5;6;7;T392"}},
{"type":"Feature","geometry":{"type":"Point","coordinates":[121.0089159,14.5904882]},"properties":{"alt_name":"Beata","name":"Pandacan","network":"PNR","operator":"Philippine National Railways","public_transport":"stop_position","railway":"stop","railway:ref":"PAN","ref":"PAN","tactile_paving":"no","train":"yes","wheelchair":"yes"}},
{"type":"Feature","geometry":{"type":"Point","coordinates":[121.3018849,14.0700337]},"properties":{"bus":"yes","name":"SM City San Pablo","public_transport":"stop_position","share_taxi":"yes"}},
{"type":"Feature","geometry":{"type":"Point","coordinates":[121.0509206,14.4524013]},"properties":{"name":"Sucat","operator":"Philippine National Railways","public_transport":"stop_position","railway":"stop","ref":"SUC","tactile_paving":"no","train":"yes","wheelchair":"yes"}},
{"type":"Feature","geometry":{"type":"Point","coordinates":[121.3509162,14.2087615]},"properties":{"bus":"yes","public_transport":"stop_position"}},
{"type":"Feature","geometry":{"type":"Point","coordinates":[121.0168991,14.5409298]},"properties":{"name":"EDSA","operator":"Philippine National Railways","public_transport":"stop_position","railway":"stop","ref":"EDSA","tactile_paving":"no","train":"yes","wheelchair":"yes"}},
{"type":"Feature","geometry":{"type":"Point","coordinates":[121.0106092,14.6005068]},"properties":{"name":"Santa Mesa","operator":"Philippine National Railways","public_transport":"stop_position","railway":"stop","railway:ref":"SM","ref":"SM","tactile_paving":"no","train":"yes","wheelchair":"yes"}},
{"type":"Feature","geometry":{"type":"Point","coordinates":[120.9841819,14.6225764]},"properties":{"name":"Blumentritt","network":"PNR","operator":"Philippine National Railways","public_transport":"stop_position","railway:ref":"BLU","ref":"BLU","tactile_paving":"no","train":"yes","wheelchair":"yes"}},
{"type":"Feature","geometry":{"type":"Point","coordinates":[120.9928355,14.6164095]},"properties":{"alt_name":"Laon-Laan","name":"Laon Laan","operator":"Philippine National Railways","public_transport":"stop_position","railway:ref":"LL","ref":"LL","tactile_paving":"no","train":"yes","wheelchair":"yes"}},
{"type":"Feature","geometry":{"type":"Point","coordinates":[120.9971899,14.6118601]},"properties":{"name":"España","network":"PNR","operator":"Philippine National Railways","public_transport":"stop_position","railway:ref":"ESP","ref":"ESP","tactile_paving":"no","train":"yes","wheelchair":"yes"}},
{"type":"Feature","geometry":{"type":"Point","coordinates":[121.0262853,14.5236351]},"properties":{"alt_name":"Bonifacio/Villamor","name":"Nichols","operator":"Philippine National Railways","public_transport":"stop_position","railway":"stop","ref":"NIC","tactile_paving":"no","train":"yes","wheelchair":"yes"}},
{"type":"Feature","geometry":{"type":"Point","coordinates":[121.9473812,11.9492349]},"properties":{"addr:city":"Malay","addr:province":"Aklan","amenity":"ferry_terminal","ferry":"yes","name":"Tambisaan Jetty Port","public_transport":"stop_position"}},
{"type":"Feature","geometry":{"type":"Point","coordinates":[121.0533205,14.5970136]},"properties":{"bus":"yes","name":"La Salle Green Hills","public_transport":"stop_position"}},
{"type":"Feature","geometry":{"type":"Point","coordinates":[121.0233555,14.5523772]},"properties":{"highway":"bus_stop","name":"Landmark","public_transport":"platform"}},
{"type":"Feature","geometry":{"type":"Point","coordinates":[121.0290951,14.5492222]},"properties":{"bus":"yes","public_transport":"stop_position"}},
{"type":"Feature","geometry":{"type":"Point","coordinates":[121.3020947,14.0700434]},"properties":{"covered":"no","highway":"bus_stop","name":"SM City San Pablo","public_transport":"platform"}},
{"type":"Feature","geometry":{"type":"Point","coordinates":[121.0727551,14.6310981]},"properties":{"bus":"yes","name":"Aurora-Katipunan","public_transport":"stop_position"}},
{"type":"Feature","geometry":{"type":"Point","coordinates":[121.0728209,14.6309477]},"properties":{"bus":"yes","name":"Aurora-Katipunan","public_transport":"stop_position"}},
{"type":"Feature","geometry":{"type":"Point","coordinates":[120.5826502,16.3973999]},"properties":{"bus":"yes","highway":"bus_stop","name":"Kitma Crystal Cave Stop","public_transport":"stop_position"}},
{"type":"Feature","geometry":{"type":"Point","coordinates":[120.5891736,16.3999683]},"properties":{"bus":"yes","highway":"bus_stop","name":"Bakakeng/Marcos Highway","public_transport":"stop_position"}},
{"type":"Feature","geometry":{"type":"Point","coordinates":[121.3428454,12.3187811]},"properties":{"amenity":"ferry_terminal","cargo":"passengers","ferry":"yes","public_transport":"stop_position"}},
{"type":"Feature","geometry":{"type":"Point","coordinates":[120.5831909,16.4127168]},"properties":{"bus":"yes","highway":"bus_stop","name":"Welcome Gantry","public_transport":"stop_position"}},
{"type":"Feature","geometry":{"type":"Point","coordinates":[120.5934536,16.4131188]},"properties":{"bus":"yes","name":"Otek PUJ Unloading","public_transport":"stop_position"}},
{"type":"Feature","geometry":{"type":"Point","coordinates":[120.599578,16.4062108]},"properties":{"bus":"yes","name":"Harrison SM Skyranch","public_transport":"stop_position"}},
{"type":"Feature","geometry":{"type":"Point","coordinates":[120.579269,16.4129959]},"properties":{"bus":"yes","name":"Cooyeesan Hotel Plaza","public_transport":"stop_position"}},
{"type":"Feature","geometry":{"type":"Point","coordinates":[120.5495434,16.4291338]},"properties":{"bus":"yes","name":"Irisan National High School","public_transport":"stop_position"}},
{"type":"Feature","geometry":{"type":"Point","coordinates":[120.5446482,16.4343916]},"properties":{"bus":"yes","name":"Lamtang Turning Point","network":"PH:CAR:Baguio","public_transport":"stop_position"}},
{"type":"Feature","geometry":{"type":"Point","coordinates":[120.5758095,16.4281948]},"properties":{"bus":"yes","highway":"bus_stop","name":"Tam-Awan Turning Point","network":"PH:CAR:Baguio","public_transport":"stop_position"}},
{"type":"Feature","geometry":{"type":"Point","coordinates":[120.576248,16.429696]},"properties":{"bus":"yes","name":"Tam-Awan Village","network":"PH:CAR:Baguio","public_transport":"stop_position"}},
{"type":"Feature","geometry":{"type":"Point","coordinates":[120.5748855,16.4312564]},"properties":{"bus":"yes","name":"Igorot Stone Kingdom","public_transport":"stop_position","share_taxi":"yes"}},
{"type":"Feature","geometry":{"type":"Point","coordinates":[120.6152339,16.4000088]},"properties":{"bus":"yes","name":"Scout Hill Station","public_transport":"stop_position"}},
{"type":"Feature","geometry":{"type":"Point","coordinates":[120.6100029,16.3941891]},"properties":{"bus":"yes","highway":"bus_stop","name":"Scout Barrio Purok 3","public_transport":"stop_position"}},
{"type":"Feature","geometry":{"type":"Point","coordinates":[120.6289995,16.3730587]},"properties":{"bus":"yes","highway":"bus_stop","name":"PMA","public_transport":"stop_position"}},
{"type":"Feature","geometry":{"type":"Point","coordinates":[120.5942835,16.4252344]},"properties":{"bus":"yes","name":"Manuel Roxas Purok 1","public_transport":"stop_position"}},
{"type":"Feature","geometry":{"type":"Point","coordinates":[120.9335509,13.5067598]},"properties":{"amenity":"ferry_terminal","cargo":"passengers;vehicle","ferry":"yes","mooring":"ferry","name":"Balatero","public_transport":"stop_position"}},
{"type":"Feature","geometry":{"type":"Point","coordinates":[120.4365657,16.2329412]},"properties":{"bus":"yes","highway":"bus_stop","public_transport":"stop_position","share_taxi":"yes"}},
{"type":"Feature","geometry":{"type":"Point","coordinates":[120.3954607,16.7568535]},"properties":{"bus":"yes","highway":"bus_stop","public_transport":"stop_position","share_taxi":"yes"}},
{"type":"Feature","geometry":{"type":"Point","coordinates":[120.5947056,16.4668839]},"properties":{"bus":"yes","highway":"bus_stop","name":"Alapang","public_transport":"stop_position"}},
{"type":"Feature","geometry":{"type":"Point","coordinates":[123.9116747,10.2967262]},"properties":{"addr:postcode":"6000","amenity":"ferry_terminal","cargo":"passengers;vehicle","ferry":"yes","mooring":"ferry","name":"Cebu Pier 3","operator":"Cebu Port Authority","public_transport":"stop_position"}},
{"type":"Feature","geometry":{"type":"Point","coordinates":[124.0026414,11.0742453]},"properties":{"alt_name":"Bogo","amenity":"ferry_terminal","cargo":"passengers;vehicle","ferry":"yes","mooring":"ferry","name":"Polambato Port, Bogo City, Cebu","operator":"Cebu Port Authority","public_transport":"stop_position"}},
{"type":"Feature","geometry":{"type":"Point","coordinates":[124.0306462,10.5201964]},"properties":{"amenity":"ferry_terminal","cargo":"passengers;vehicle","ferry":"yes","mooring":"ferry","name":"Danao City","public_transport":"stop_position","wheelchair":"limited"}},
{"type":"Feature","geometry":{"type":"Point","coordinates":[121.0342538,16.2952018]},"properties":{"highway":"bus_stop","name":"Aritao"}},
{"type":"Feature","geometry":{"type":"Point","coordinates":[121.0196921,14.6576553]},"properties":{"bus":"yes","highway":"bus_stop","name":"Roosevelt","network":"LTFRB PUB","network:wikidata":"Q6483998","public_transport":"platform","shelter":"yes"}},
{"type":"Feature","geometry":{"type":"Point","coordinates":[120.5439945,15.1863849]},"properties":{"highway":"bus_stop","name":"Jeepney Stop"}},
{"type":"Feature","geometry":{"type":"Point","coordinates":[120.4187855,16.2053845]},"properties":{"bus":"yes","highway":"bus_stop","name":"LDP Farm Foods Corp.","network":"PH","public_transport":"stop_position"}},
{"type":"Feature","geometry":{"type":"Point","coordinates":[121.4232126,13.9286794]},"properties":{"bus":"yes","highway":"bus_stop","name":"Candelaria","public_transport":"stop_position"}},
{"type":"Feature","geometry":{"type":"Point","coordinates":[121.0516079,14.5190191]},"properties":{"highway":"bus_stop","name":"Bayani Interchange","public_transport":"platform"}},
{"type":"Feature","geometry":{"type":"Point","coordinates":[121.0476442,14.5730934]},"properties":{"light_rail":"yes","name":"Boni","public_transport":"stop_position","railway":"stop"}},
{"type":"Feature","geometry":{"type":"Point","coordinates":[120.5992137,16.4131464]},"properties":{"alt_name":"End of Line","bus":"yes","description":"End of Line - Jeepney's from Itogon are not allowed to take passengers to the Terminal in the city and must unload all passengers here (City Ordinance)","name":"General Luna Road","public_transport":"stop_position"}},
{"type":"Feature","geometry":{"type":"Point","coordinates":[120.9763399,14.2350147]},"properties":{"name":"Velazco Hospital","network":"PH:PUJ:CALABARZON","public_transport":"stop_position","share_taxi":"yes"}},
{"type":"Feature","geometry":{"type":"Point","coordinates":[120.97582,14.2437173]},"properties":{"name":"Biga Junction","public_transport":"stop_position","share_taxi":"yes"}},
{"type":"Feature","geometry":{"type":"Point","coordinates":[120.5973341,16.4113418]},"properties":{"bus":"yes","highway":"bus_stop","name":"Lucnab PUJ Terminal","public_transport":"stop_position"}},
{"type":"Feature","geometry":{"type":"Point","coordinates":[120.5976279,16.4109632]},"properties":{"bus":"yes","highway":"bus_stop","name":"Country Club Village PUJ Terminal","public_transport":"stop_position"}},
{"type":"Feature","geometry":{"type":"Point","coordinates":[120.8284261,14.3561105]},"properties":{"highway":"bus_stop","name":"Suntrust Ecotown Terminal","public_transport":"platform"}},
{"type":"Feature","geometry":{"type":"Point","coordinates":[120.9461534,14.3462272]},"properties":{"bus":"yes","name":"Cardinal Village","public_transport":"stop_position"}},
{"type":"Feature","geometry":{"type":"Point","coordinates":[120.9473579,14.3433319]},"properties":{"bus":"yes","name":"Molino Homes 2","public_transport":"stop_position"}},
{"type":"Feature","geometry":{"type":"Point","coordinates":[120.9539097,14.3042854]},"properties":{"highway":"bus_stop","name":"Kidzworld","operator":"City of Dasmariñas","operator:type":"government"}},
{"type":"Feature","geometry":{"type":"Point","coordinates":[120.9765901,14.3153712]},"properties":{"bus":"yes","name":"Victoria Reyes","public_transport":"stop_position"}},
{"type":"Feature","geometry":{"type":"Point","coordinates":[120.9719838,14.3217485]},"properties":{"bus":"yes","highway":"bus_stop","name":"Dasmariñas East Integrated High School","public_transport":"stop_position","share_taxi":"yes"}},
{"type":"Feature","geometry":{"type":"Point","coordinates":[120.9712821,14.3222955]},"properties":{"bus":"yes","highway":"bus_stop","name":"Santa Cristina Elementary School","public_transport":"stop_position","share_taxi":"yes"}},
{"type":"Feature","geometry":{"type":"Point","coordinates":[121.32546,14.0702318]},"properties":{"public_transport":"stop_position","share_taxi":"yes"}},
{"type":"Feature","geometry":{"type":"Point","coordinates":[121.3256078,14.0698574]},"properties":{"bus":"yes","name":"San Pablo","public_transport":"stop_position","share_taxi":"yes"}},
{"type":"Feature","geometry":{"type":"Point","coordinates":[120.5858872,16.418839]},"properties":{"bus":"yes","highway":"bus_stop","name":"Pleasantville Subdivision","public_transport":"stop_position"}},
{"type":"Feature","geometry":{"type":"Point","coordinates":[120.5864042,16.4183829]},"properties":{"bus":"yes","highway":"bus_stop","name":"Cresencia Village","public_transport":"stop_position"}},
{"type":"Feature","geometry":{"type":"Point","coordinates":[122.0380891,12.1720809]},"properties":{"ferry":"yes","name":"ferry island","public_transport":"platform"}},
{"type":"Feature","geometry":{"type":"Point","coordinates":[121.0019712,14.2881082]},"properties":{"bus":"yes","name":"Jacinto Lumbreras","public_transport":"stop_position"}},
{"type":"Feature","geometry":{"type":"Point","coordinates":[121.0429249,14.8152343]},"properties":{"amenity":"bus_station","name":"Jeepney Terminal"}},
{"type":"Feature","geometry":{"type":"Point","coordinates":[125.6727781,7.1215336]},"properties":{"alt_name":"Kinawitnon Port","amenity":"ferry_terminal","cargo":"passengers;vehicle","ferry":"yes","name":"Kinawitnon","official_name":"Port of Kinawitnon","public_transport":"stop_position"}},
{"type":"Feature","geometry":{"type":"Point","coordinates":[125.6634566,7.1346248]},"properties":{"amenity":"ferry_terminal","cargo":"passengers","ferry":"yes","name":"Sasa","public_transport":"stop_position"}},
{"type":"Feature","geometry":{"type":"Point","coordinates":[121.0028695,14.5669395]},"properties":{"name":"Vito Cruz","network":"PNR","operator":"Philippine National Railways","public_transport":"stop_position","railway":"stop","railway:ref":"VTC","ref":"VTC","tactile_paving":"no","train":"yes","wheelchair":"yes"}},
{"type":"Feature","geometry":{"type":"Point","coordinates":[121.0636556,14.3468628]},"properties":{"name":"Pacita Main Gate","network":"PNR Metro Commuter Line","operator":"Philippine National Railways","public_transport":"stop_position","railway":"station","tactile_paving":"no","train":"yes","wheelchair":"yes"}},
{"type":"Feature","geometry":{"type":"Point","coordinates":[121.01996,14.6576544]},"properties":{"bus":"yes","highway":"bus_stop","name":"Roosevelt","network":"LTFRB PUB","network:wikidata":"Q6483998","public_transport":"platform"}},
{"type":"Feature","geometry":{"type":"Point","coordinates":[121.1875147,14.1762862]},"properties":{"highway":"bus_stop","name":"Miramonte Village","public_transport":"platform"}},
{"type":"Feature","geometry":{"type":"Point","coordinates":[121.0810677,14.6278279]},"properties":{"bus":"yes","name":"FVR Road","public_transport":"stop_position","share_taxi":"yes"}},
{"type":"Feature","geometry":{"type":"Point","coordinates":[124.7407746,10.368498]},"properties":{"amenity":"ferry_terminal","cargo":"passengers;vehicle","ferry":"yes","mooring":"ferry","name":"Hilongos","public_transport":"stop_position"}},
{"type":"Feature","geometry":{"type":"Point","coordinates":[121.0233798,14.3567154]},"properties":{"bus":"yes","name":"Sitio Southridge (1)","public_transport":"stop_position"}},
{"type":"Feature","geometry":{"type":"Point","coordinates":[121.0267152,14.3583417]},"properties":{"bus":"yes","name":"Camella Woodhills","public_transport":"stop_position"}},
{"type":"Feature","geometry":{"type":"Point","coordinates":[121.0419128,13.7520908]},"properties":{"amenity":"ferry_terminal","cargo":"passengers","ferry":"yes","mooring":"ferry","name":"Batangas","public_transport":"stop_position"}},
{"type":"Feature","geometry":{"type":"Point","coordinates":[121.2415438,14.1637801]},"properties":{"bus":"yes","public_transport":"stop_position"}},
{"type":"Feature","geometry":{"type":"Point","coordinates":[121.2399382,14.1636861]},"properties":{"bus":"yes","public_transport":"stop_position"}},
{"type":"Feature","geometry":{"type":"Point","coordinates":[120.6023743,16.4028595]},"properties":{"alt_name":"Turning Point","bus":"yes","highway":"bus_stop","name":"wagner","public_transport":"stop_position"}},
{"type":"Feature","geometry":{"type":"Point","coordinates":[120.5974878,16.431504]},"properties":{"bus":"yes","name":"Bell Church","network":"PH:CAR","public_transport":"stop_position"}},
{"type":"Feature","geometry":{"type":"Point","coordinates":[120.6088376,16.4157446]},"properties":{"bus":"yes","name":"SLU - Laboratory High School","public_transport":"stop_position"}},
{"type":"Feature","geometry":{"type":"Point","coordinates":[123.5645639,13.5878551]},"properties":{"amenity":"ferry_terminal","cargo":"passengers","ferry":"yes","public_transport":"stop_position"}},
{"type":"Feature","geometry":{"type":"Point","coordinates":[124.4747141,10.0643428]},"properties":{"alt_name":"Tapal","amenity":"ferry_terminal","cargo":"passengers;vehicle","ferry":"yes","mooring":"ferry","name":"Ubay","public_transport":"stop_position"}},
{"type":"Feature","geometry":{"type":"Point","coordinates":[120.973285,14.6120313]},"properties":{"name":"Tutuban","network":"PNR","operator":"Philippine National Railways","public_transport":"stop_position","railway":"stop","railway:ref":"TT","ref":"TT","tactile_paving":"no","train":"yes","wheelchair":"yes"}},
{"type":"Feature","geometry":{"type":"Point","coordinates":[121.1464588,14.1083506]},"properties":{"highway":"bus_stop","name":"Santo Tomas","public_transport":"platform"}},
{"type":"Feature","geometry":{"type":"Point","coordinates":[121.0225873,14.1995182]},"properties":{"bus":"yes","name":"PNPA","public_transport":"stop_position","share_taxi":"yes"}},
{"type":"Feature","geometry":{"type":"Point","coordinates":[124.0614111,11.279632]},"properties":{"amenity":"bus_station","bus":"yes","name":"Maya Bus Terminal","public_transport":"station"}},
{"type":"Feature","geometry":{"type":"Point","coordinates":[123.9139164,10.3013877]},"properties":{"alt_name":"Supercat Terminal","amenity":"ferry_terminal","ferry":"yes","mooring":"ferry","name":"Cebu Pier 4","operator":"2Go Travel","public_transport":"stop_position","website":"https://travel.2go.com.ph/"}},
{"type":"Feature","geometry":{"type":"Point","coordinates":[120.9995466,14.5731191]},"properties":{"name":"San Andres","network":"PNR","operator":"Philippine National Railways","public_transport":"stop_position","railway":"stop","railway:ref":"SA","ref":"SA","tactile_paving":"no","train":"yes","wheelchair":"yes"}},
{"type":"Feature","geometry":{"type":"Point","coordinates":[120.5745146,16.3973961]},"properties":{"name":"Jeepney Stop unnamed","public_transport":"stop_position","share_taxi":"yes"}},
{"type":"Feature","geometry":{"type":"Point","coordinates":[121.2443576,14.1691163]},"properties":{"bus":"yes","public_transport":"stop_position"}},
{"type":"Feature","geometry":{"type":"Point","coordinates":[121.2442301,14.1695531]},"properties":{"bench":"no","highway":"bus_stop","noname":"yes","shelter":"no"}},
{"type":"Feature","geometry":{"type":"Point","coordinates":[125.6255892,7.0758517]},"properties":{"bus":"yes","check_date":"~2017","fixme":"verify if still operational","highway":"bus_stop","operator":"Island Express","public_transport":"platform"}},
{"type":"Feature","geometry":{"type":"Point","coordinates":[121.2385364,14.1654635]},"properties":{"bus":"yes","public_transport":"stop_position"}},
{"type":"Feature","geometry":{"type":"Point","coordinates":[121.2425521,14.1773074]},"properties":{"bench":"no","bin":"no","highway":"bus_stop","lit":"no","name":"Robinsons","public_transport":"platform","shelter":"no"}},
{"type":"Feature","geometry":{"type":"Point","coordinates":[121.2413417,14.1628195]},"properties":{"highway":"bus_stop","name":"SU","shelter":"no"}},
{"type":"Feature","geometry":{"type":"Point","coordinates":[121.2411294,14.1628594]},"properties":{"highway":"bus_stop","name":"SU","shelter":"no"}},
{"type":"Feature","geometry":{"type":"Point","coordinates":[121.0251104,14.5522933]},"properties":{"bus":"yes","highway":"bus_stop","name":"Glorietta 3","public_transport":"stop_position"}},
{"type":"Feature","geometry":{"type":"Point","coordinates":[121.5987653,16.6951189]},"properties":{"highway":"bus_stop","public_transport":"platform"}},
{"type":"Feature","geometry":{"type":"Point","coordinates":[121.6995236,16.7790783]},"properties":{"highway":"bus_stop","name":"Alicia"}},
{"type":"Feature","geometry":{"type":"Point","coordinates":[121.0094738,14.5100174]},"properties":{"bus":"yes","name":"MIAA Administration, Engineering","public_transport":"stop_position"}},
{"type":"Feature","geometry":{"type":"Point","coordinates":[121.0349943,14.6687738]},"properties":{"bench":"no","bus":"yes","highway":"bus_stop","name":"Congressional Avenue & Mindanao Avenue","network":"LTFRB PUB;QCityBus","operator":"Lungsod Quezon","public_transport":"platform","route_ref":"18;QC4","shelter":"no","wheelchair":"limited"}},
{"type":"Feature","geometry":{"type":"Point","coordinates":[121.2373997,14.1590162]},"properties":{"bus":"yes","public_transport":"stop_position"}},
{"type":"Feature","geometry":{"type":"Point","coordinates":[121.235199,14.1557864]},"properties":{"bus":"yes","public_transport":"stop_position"}},
{"type":"Feature","geometry":{"type":"Point","coordinates":[121.2361882,14.1568287]},"properties":{"bus":"yes","public_transport":"stop_position"}},
{"type":"Feature","geometry":{"type":"Point","coordinates":[121.2339143,14.1516771]},"properties":{"bus":"yes","public_transport":"stop_position"}},
{"type":"Feature","geometry":{"type":"Point","coordinates":[121.2436945,14.1669908]},"properties":{"bus":"yes","public_transport":"stop_position"}},
{"type":"Feature","geometry":{"type":"Point","coordinates":[120.651958,15.2516642]},"properties":{"highway":"bus_stop"}},
{"type":"Feature","geometry":{"type":"Point","coordinates":[121.2430119,14.1675854]},"properties":{"bus":"yes","name":"UP Gate","public_transport":"stop_position"}},
{"type":"Feature","geometry":{"type":"Point","coordinates":[121.2380474,14.1600217]},"properties":{"highway":"bus_stop","name":"CPAF","public_transport":"platform","shelter":"yes"}},
{"type":"Feature","geometry":{"type":"Point","coordinates":[124.7941987,9.1390412]},"properties":{"alt_name":"Camiguin","amenity":"ferry_terminal","cargo":"passengers;vehicle","ferry":"yes","name":"Benoni","operator":"Philippine Ports Authority","operator:short":"PPA","operator:type":"government","operator:wikidata":"Q7185188","public_transport":"stop_position"}},
{"type":"Feature","geometry":{"type":"Point","coordinates":[120.5880439,16.4082794]},"properties":{"bus":"yes","highway":"bus_stop","name":"Old Pipe Factory Road","public_transport":"stop_position"}},
{"type":"Feature","geometry":{"type":"Point","coordinates":[120.5850269,16.4075863]},"properties":{"bus":"yes","highway":"bus_stop","public_transport":"stop_position"}},
{"type":"Feature","geometry":{"type":"Point","coordinates":[120.5828939,16.4090273]},"properties":{"bus":"yes","highway":"bus_stop","name":"Domican Mirador Barangay Hall","public_transport":"stop_position"}},
{"type":"Feature","geometry":{"type":"Point","coordinates":[120.5848211,16.4095856]},"properties":{"bus":"yes","highway":"bus_stop","name":"City Camp Quarry Turning Point","network":"PH:CAR:Baguio","public_transport":"stop_position"}},
{"type":"Feature","geometry":{"type":"Point","coordinates":[120.578084,16.4160802]},"properties":{"bus":"yes","fixme":"This is part of the Quezon Hill line, but jeeps only here for morning traffic..need to add this to the Quezon Hill Line","highway":"bus_stop","name":"Quezon Hill Proper First Street Terminal","network":"PH:CAR:Baguio","opening_hours":"Mo-Su 06:00-09:30","public_transport":"stop_position"}},
{"type":"Feature","geometry":{"type":"Point","coordinates":[120.5752275,16.4158976]},"properties":{"bus":"yes","highway":"bus_stop","name":"Middle Quezon Hill Outpost","public_transport":"stop_position"}},
{"type":"Feature","geometry":{"type":"Point","coordinates":[120.5868937,16.4229104]},"properties":{"bus":"yes","highway":"bus_stop","name":"Tacay Road East","public_transport":"stop_position"}},
{"type":"Feature","geometry":{"type":"Point","coordinates":[120.6145096,16.4182881]},"properties":{"bus":"yes","name":"Regidor","public_transport":"stop_position"}},
{"type":"Feature","geometry":{"type":"Point","coordinates":[120.5934577,16.4145829]},"properties":{"bus":"yes","highway":"bus_stop","name":"Chugum PUJ Area Unloading","public_transport":"stop_position"}},
{"type":"Feature","geometry":{"type":"Point","coordinates":[120.6061976,16.4022049]},"properties":{"bus":"yes","name":"Greenwater West","public_transport":"stop_position"}},
{"type":"Feature","geometry":{"type":"Point","coordinates":[120.5772928,16.4177783]},"properties":{"bus":"yes","highway":"bus_stop","name":"Sunnyside Fairview","public_transport":"stop_position"}},
{"type":"Feature","geometry":{"type":"Point","coordinates":[120.6265405,16.3767049]},"properties":{"bus":"yes","name":"Upper Atok Trail","public_transport":"stop_position"}},
{"type":"Feature","geometry":{"type":"Point","coordinates":[120.6181525,16.3812791]},"properties":{"alt_name":"Philippine Economic Zone Authority","bus":"yes","highway":"bus_stop","name":"PEZA","public_transport":"stop_position"}},
{"type":"Feature","geometry":{"type":"Point","coordinates":[121.3262141,14.0694283]},"properties":{"addr:city":"San Pablo","addr:postcode":"4000","addr:street":"Rizal Avenue","addr:street:corner":"Marcos Paulino Avenue","alt_name":"Liceo de San Pablo TODA","amenity":"taxi","name":"MLC TODA","operator":"M. Paulino Liceo Cathedral Tricycle Operators and Drivers Association","public_transport":"platform","taxi_vehicle":"auto_rickshaw"}},
{"type":"Feature","geometry":{"type":"Point","coordinates":[125.663388,7.1317309]},"properties":{"alt_name":"Mae Wess Port","amenity":"ferry_terminal","cargo":"passengers;vehicle","ferry":"yes","name":"Sasa","official_name":"Samal Ferry Wharf Sasa","operator":"Mae Wess Company Inc.","operator:type":"private","public_transport":"stop_position"}},
{"type":"Feature","geometry":{"type":"Point","coordinates":[120.6183945,16.3818744]},"properties":{"bus":"yes","highway":"bus_stop","name":"Bangko Sentral ng Pilipinas","public_transport":"stop_position"}},
{"type":"Feature","geometry":{"type":"Point","coordinates":[120.6147324,16.3873128]},"properties":{"bus":"yes","highway":"bus_stop","name":"DENR Research Center","public_transport":"stop_position"}},
{"type":"Feature","geometry":{"type":"Point","coordinates":[120.5961414,16.4021825]},"properties":{"bus":"yes","highway":"bus_stop","name":"Baguio General Hospital","network":"PH:CAR:Baguio","public_transport":"stop_position"}},
{"type":"Feature","geometry":{"type":"Point","coordinates":[120.6069078,16.3950671]},"properties":{"bus":"yes","highway":"bus_stop","name":"Jose P. Laurel Elementary School","public_transport":"stop_position"}},
{"type":"Feature","geometry":{"type":"Point","coordinates":[120.6070045,16.3959826]},"properties":{"alt_name":"Turning Point","bus":"yes","highway":"bus_stop","name":"Lower Scout Barrio","public_transport":"stop_position"}},
{"type":"Feature","geometry":{"type":"Point","coordinates":[120.5982216,16.4088476]},"properties":{"bus":"yes","name":"SM City Baguio Governor Pack Road Entrance","public_transport":"stop_position"}},
{"type":"Feature","geometry":{"type":"Point","coordinates":[120.5988362,16.4103086]},"properties":{"bus":"yes","name":"Baguio Mini Bus","public_transport":"stop_position"}},
{"type":"Feature","geometry":{"type":"Point","coordinates":[120.5997455,16.3930698]},"properties":{"bus":"yes","name":"Cariño Subdivision","public_transport":"stop_position"}},
{"type":"Feature","geometry":{"type":"Point","coordinates":[120.6048102,16.3951366]},"properties":{"bus":"yes","highway":"bus_stop","name":"Gabriela Silang Turning Point","public_transport":"stop_position"}},
{"type":"Feature","geometry":{"type":"Point","coordinates":[120.603801,16.3940739]},"properties":{"bus":"yes","highway":"bus_stop","name":"Gabriela Silang Covered Court","network":"PH:CAR:Baguio","public_transport":"stop_position"}},
{"type":"Feature","geometry":{"type":"Point","coordinates":[120.5925156,16.3840977]},"properties":{"bus":"yes","name":"SLU Maryheights Campus","public_transport":"stop_position"}},
{"type":"Feature","geometry":{"type":"Point","coordinates":[120.5847443,16.3873567]},"properties":{"bus":"yes","check_date":"2023-06-27","name":"Bengao Turning Point","network":"PH:CAR:Baguio","public_transport":"stop_position","source":"survey;bing"}},
{"type":"Feature","geometry":{"type":"Point","coordinates":[120.5838535,16.3898186]},"properties":{"bus":"yes","check_date":"2023-06-27","name":"Santo Niño Turning Point","network":"PH:CAR:Baguio","public_transport":"stop_position","source":"survey;bing"}},
{"type":"Feature","geometry":{"type":"Point","coordinates":[120.587286,16.4015799]},"properties":{"bus":"yes","highway":"bus_stop","name":"Santo Rosario Barangay Hall","network":"PH:CAR:Baguio","public_transport":"stop_position"}},
{"type":"Feature","geometry":{"type":"Point","coordinates":[120.5864257,16.4165953]},"properties":{"bus":"yes","highway":"bus_stop","name":"Avelino Street","public_transport":"stop_position"}},
{"type":"Feature","geometry":{"type":"Point","coordinates":[120.5768421,16.4193774]},"properties":{"bus":"yes","highway":"bus_stop","name":"Camia & Copper","public_transport":"stop_position"}},
{"type":"Feature","geometry":{"type":"Point","coordinates":[119.386887,11.1816873]},"properties":{"amenity":"ferry_terminal","cargo":"passengers;vehicle","ferry":"yes","mooring":"ferry","name":"El Nido","public_transport":"stop_position"}},
{"type":"Feature","geometry":{"type":"Point","coordinates":[120.5740561,16.4059395]},"properties":{"bus":"yes","name":"San Luis Terminal","public_transport":"stop_position"}},
{"type":"Feature","geometry":{"type":"Point","coordinates":[120.5724746,16.4039371]},"properties":{"bus":"yes","name":"Celestial Village Gate","public_transport":"stop_position"}},
{"type":"Feature","geometry":{"type":"Point","coordinates":[120.5724601,16.4050333]},"properties":{"bus":"yes","name":"Celestial Village","public_transport":"stop_position"}},
{"type":"Feature","geometry":{"type":"Point","coordinates":[120.5755926,16.4130367]},"properties":{"bus":"yes","name":"Baguio Cemetery","public_transport":"stop_position"}},
{"type":"Feature","geometry":{"type":"Point","coordinates":[121.0640131,14.6215242]},"properties":{"covered":"yes","mapillary":"1373924586313110","name":"21st Avenue","public_transport":"platform","shelter":"yes"}},
{"type":"Feature","geometry":{"type":"Point","coordinates":[120.9530022,13.5028585]},"properties":{"alt_name":"Balatero","amenity":"ferry_terminal","cargo":"passengers","ferry":"yes","mooring":"ferry","name":"Puerto Galera","public_transport":"stop_position"}},
{"type":"Feature","geometry":{"type":"Point","coordinates":[121.0421193,13.7528764]},"properties":{"amenity":"ferry_terminal","cargo":"passengers","ferry":"yes","mooring":"ferry","name":"Batangas","public_transport":"stop_position"}},
{"type":"Feature","geometry":{"type":"Point","coordinates":[121.4750615,15.7991133]},"properties":{"highway":"bus_stop","name":"Maria Aurora","public_transport":"platform"}},
{"type":"Feature","geometry":{"type":"Point","coordinates":[121.2426005,14.176682]},"properties":{"bus":"yes","highway":"bus_stop","name":"El Danda","public_transport":"platform","shelter":"no"}},
{"type":"Feature","geometry":{"type":"Point","coordinates":[121.2432438,14.1741446]},"properties":{"highway":"bus_stop","name":"Lopez Elementary School","public_transport":"platform"}},
{"type":"Feature","geometry":{"type":"Point","coordinates":[121.2432591,14.1728854]},"properties":{"bus":"yes","public_transport":"stop_position"}},
{"type":"Feature","geometry":{"type":"Point","coordinates":[120.5925384,16.3786112]},"properties":{"bus":"yes","name":"Sunnyside","network":"PH:CAR:Baguio","public_transport":"stop_position"}},
{"type":"Feature","geometry":{"type":"Point","coordinates":[120.5801312,16.3949603]},"properties":{"bus":"yes","highway":"bus_stop","name":"Centerpoint Plaza North","public_transport":"stop_position"}},
{"type":"Feature","geometry":{"type":"Point","coordinates":[120.6200847,16.4051806]},"properties":{"bus":"yes","highway":"bus_stop","name":"Country Club Village Barangay Hall","public_transport":"stop_position"}},
{"type":"Feature","geometry":{"type":"Point","coordinates":[120.6166599,16.4062522]},"properties":{"bus":"yes","name":"Gate 4 Station","public_transport":"stop_position"}},
{"type":"Feature","geometry":{"type":"Point","coordinates":[120.5838834,16.4056589]},"properties":{"bus":"yes","highway":"bus_stop","public_transport":"stop_position"}},
{"type":"Feature","geometry":{"type":"Point","coordinates":[120.5828207,16.4089029]},"properties":{"bus":"yes","highway":"bus_stop","name":"Domican Mirador Barangay Hall","public_transport":"stop_position"}},
{"type":"Feature","geometry":{"type":"Point","coordinates":[120.5819425,16.4068321]},"properties":{"bus":"yes","highway":"bus_stop","public_transport":"stop_position"}},
{"type":"Feature","geometry":{"type":"Point","coordinates":[121.2440258,14.1685527]},"properties":{"bench":"no","bin":"no","highway":"bus_stop","name":"Grove","public_transport":"platform","shelter":"no"}},
{"type":"Feature","geometry":{"type":"Point","coordinates":[121.243925,14.1683007]},"properties":{"highway":"bus_stop","name":"Vega","public_transport":"platform"}},
{"type":"Feature","geometry":{"type":"Point","coordinates":[121.2434859,14.1709508]},"properties":{"bench":"no","bin":"no","highway":"bus_stop","lit":"yes","name":"LBDH","public_transport":"platform","shelter":"no"}},
{"type":"Feature","geometry":{"type":"Point","coordinates":[121.2437538,14.1704103]},"properties":{"highway":"bus_stop","name":"LB Centtro","public_transport":"platform"}},
{"type":"Feature","geometry":{"type":"Point","coordinates":[121.243255,14.1724672]},"properties":{"bus":"yes","public_transport":"stop_position"}},
{"type":"Feature","geometry":{"type":"Point","coordinates":[121.244529,14.1650748]},"properties":{"highway":"bus_stop","name":"Math Building/St. Therese","public_transport":"platform"}},
{"type":"Feature","geometry":{"type":"Point","coordinates":[120.9978558,14.6573179]},"properties":{"highway":"bus_stop","name":"Bagong Barrio"}},
{"type":"Feature","geometry":{"type":"Point","coordinates":[124.7379353,9.2438966]},"properties":{"amenity":"ferry_terminal","cargo":"passengers;vehicle","ferry":"yes","name":"Balbagon","operator":"Philippine Ports Authority","operator:short":"PPA","operator:type":"government","operator:wikidata":"Q7185188","public_transport":"stop_position"}},
{"type":"Feature","geometry":{"type":"Point","coordinates":[123.3114084,9.3131543]},"properties":{"amenity":"ferry_terminal","cargo":"passengers;vehicle","ferry":"yes","name":"Dumaguete","operator":"Philippine Ports Authority","operator:short":"PPA","operator:type":"government","operator:wikidata":"Q7185188","public_transport":"stop_position"}},
{"type":"Feature","geometry":{"type":"Point","coordinates":[121.2441851,14.1658894]},"properties":{"highway":"bus_stop","name":"Maquiling School","public_transport":"platform"}},
{"type":"Feature","geometry":{"type":"Point","coordinates":[121.2446069,14.1650861]},"properties":{"bench":"yes","highway":"bus_stop","name":"Math Building/St. Therese","public_transport":"platform"}},
{"type":"Feature","geometry":{"type":"Point","coordinates":[121.2399709,14.163621]},"properties":{"bus":"yes","public_transport":"stop_position"}},
{"type":"Feature","geometry":{"type":"Point","coordinates":[121.2352603,14.1519931]},"properties":{"bus":"yes","public_transport":"stop_position"}},
{"type":"Feature","geometry":{"type":"Point","coordinates":[121.2350264,14.1527608]},"properties":{"bus":"yes","public_transport":"stop_position"}},
{"type":"Feature","geometry":{"type":"Point","coordinates":[121.2358329,14.156741]},"properties":{"bus":"yes","public_transport":"stop_position"}},
{"type":"Feature","geometry":{"type":"Point","coordinates":[121.2408855,14.161687]},"properties":{"highway":"bus_stop","name":"Freedom Park","public_transport":"platform"}},
{"type":"Feature","geometry":{"type":"Point","coordinates":[121.2422655,14.1613905]},"properties":{"highway":"bus_stop","name":"Baker Hall","public_transport":"platform"}},
{"type":"Feature","geometry":{"type":"Point","coordinates":[121.2414561,14.1609739]},"properties":{"highway":"bus_stop","name":"YMCA","public_transport":"platform"}},
{"type":"Feature","geometry":{"type":"Point","coordinates":[121.0512904,14.6228148]},"properties":{"addr:city":"Quezon City","addr:street":"Annapolis Street","amenity":"bus_station","name":"A. Roces Transport Terminal","public_transport":"station"}},
{"type":"Feature","geometry":{"type":"Point","coordinates":[121.0558495,14.6244871]},"properties":{"addr:city":"Quezon City","addr:street":"Aurora Boulevard","auto_rickshaw":"yes","public_transport":"platform"}},
{"type":"Feature","geometry":{"type":"Point","coordinates":[121.2385508,14.165498]},"properties":{"highway":"bus_stop","name":"Main Library/Faculty Village","public_transport":"platform"}},
{"type":"Feature","geometry":{"type":"Point","coordinates":[120.9670351,14.6929154]},"properties":{"bus":"yes","highway":"bus_stop","name":"Malinta","operator":"Valenzuela Traffic Management Department","public_transport":"platform","ref":"13","share_taxi":"yes"}},
{"type":"Feature","geometry":{"type":"Point","coordinates":[120.9681452,14.6928345]},"properties":{"bus":"yes","public_transport":"stop_position"}},
{"type":"Feature","geometry":{"type":"Point","coordinates":[123.807992,11.1661541]},"properties":{"alt_name":"Bantayan","cargo":"passengers;vehicle","ferry":"yes","mooring":"ferry","name":"Santa Fe","operator":"Cebu Port Authority","public_transport":"stop_position","ref":"1"}},
{"type":"Feature","geometry":{"type":"Point","coordinates":[123.80833,11.1659739]},"properties":{"ferry":"yes","mooring":"ferry","name":"Santa Fe","operator":"Cebu Port Authority","public_transport":"stop_position","ref":"3"}},
{"type":"Feature","geometry":{"type":"Point","coordinates":[121.0509236,14.532589]},"properties":{"bus":"yes","name":"McKinley Hill Transport Hub","public_transport":"stop_position","route_ref":"18;18N;65"}},
{"type":"Feature","geometry":{"type":"Point","coordinates":[121.0504617,14.5333929]},"properties":{"bus":"yes","name":"McKinley Hill Transport Hub","public_transport":"stop_position"}},
{"type":"Feature","geometry":{"type":"Point","coordinates":[123.9087156,10.2940813]},"properties":{"amenity":"ferry_terminal","ferry":"yes","public_transport":"stop_position"}},
{"type":"Feature","geometry":{"type":"Point","coordinates":[123.7764191,13.236672]},"properties":{"highway":"bus_stop","name":"Jeepney Stop"}},
{"type":"Feature","geometry":{"type":"Point","coordinates":[123.7769262,13.2378278]},"properties":{"amenity":"bus_station","name":"Jeepney Terminal"}},
{"type":"Feature","geometry":{"type":"Point","coordinates":[123.766623,13.2507671]},"properties":{"highway":"bus_stop","name":"Jeepney Stop"}},
{"type":"Feature","geometry":{"type":"Point","coordinates":[123.8679945,13.2396536]},"properties":{"amenity":"ferry_terminal","public_transport":"platform"}},
{"type":"Feature","geometry":{"type":"Point","coordinates":[121.2407525,14.1673357]},"properties":{"highway":"bus_stop","name":"CSI/Humanities","public_transport":"platform"}},
{"type":"Feature","geometry":{"type":"Point","coordinates":[121.2401897,14.1671303]},"properties":{"highway":"bus_stop","name":"CSI/BioSci/Humanities","public_transport":"platform"}},
{"type":"Feature","geometry":{"type":"Point","coordinates":[121.2387514,14.1665156]},"properties":{"highway":"bus_stop","name":"Sacay/UPCO","public_transport":"platform"}},
{"type":"Feature","geometry":{"type":"Point","coordinates":[121.2404666,14.1622631]},"properties":{"highway":"bus_stop","name":"Women's Dorm"}},
{"type":"Feature","geometry":{"type":"Point","coordinates":[124.3594888,11.6842616]},"properties":{"amenity":"ferry_terminal","ferry":"yes","public_transport":"stop_position"}},
{"type":"Feature","geometry":{"type":"Point","coordinates":[121.153511,13.9436002]},"properties":{"bus":"yes","highway":"bus_stop","name":"Uptown","network":"LTFRB PUB","network:wikidata":"Q6483998","operator":"City of Lipa","public_transport":"platform"}},
{"type":"Feature","geometry":{"type":"Point","coordinates":[120.9998406,14.6610759]},"properties":{"bench":"no","bus":"yes","covered":"no","highway":"bus_stop","name":"NLEX","network":"LTFRB–National Capital Region","network:wikidata":"Q6483998","public_transport":"platform"}},
{"type":"Feature","geometry":{"type":"Point","coordinates":[121.0506134,14.5331092]},"properties":{"bus":"yes","name":"McKinley Hill Transport Hub","public_transport":"stop_position","route_ref":"4;56;57;60"}},
{"type":"Feature","geometry":{"type":"Point","coordinates":[120.5958963,16.4022343]},"properties":{"bus":"yes","highway":"bus_stop","name":"Baguio General Hospital","network":"PH:CAR:Baguio","public_transport":"stop_position"}},
{"type":"Feature","geometry":{"type":"Point","coordinates":[120.9715865,15.1619545]},"properties":{"bus":"yes","highway":"bus_stop","name":"Camias","network":"LTFRB PUB","operator":"ES Transport","source":"G-eMapper"}},
{"type":"Feature","geometry":{"type":"Point","coordinates":[120.4186548,16.2043767]},"properties":{"bus":"yes","highway":"bus_stop","name":"Rabon South","network":"PH","public_transport":"stop_position"}},
{"type":"Feature","geometry":{"type":"Point","coordinates":[122.57238,10.6887864]},"properties":{"alt_name":"Iloilo Ortiz Wharf","amenity":"ferry_terminal","ferry":"yes","name":"Iloilo","public_transport":"stop_position"}},
{"type":"Feature","geometry":{"type":"Point","coordinates":[122.5847543,10.6658282]},"properties":{"alt_name":"Guimaras","amenity":"ferry_terminal","cargo":"passengers;vehicle","ferry":"yes","name":"Jordan RORO Port","public_transport":"stop_position"}},
{"type":"Feature","geometry":{"type":"Point","coordinates":[121.076194,13.8038174]},"properties":{"bus":"yes","name":"Sorosoro Karsada","public_transport":"stop_position","share_taxi":"yes"}},
{"type":"Feature","geometry":{"type":"Point","coordinates":[122.1056652,13.9214688]},"properties":{"bus":"yes","name":"Gumaca","public_transport":"stop_position"}},
{"type":"Feature","geometry":{"type":"Point","coordinates":[120.8789175,14.3816934]},"properties":{"addr:city":"General Trias","addr:postcode":"4107","addr:street":"General Trias Drive","amenity":"bus_station","auto_rickshaw":"yes","bus":"yes","level":"0","mapillary":"1419635418496400","motorcar":"no","name":"Malabon Tricycle Terminal","public_transport":"station","taxi_vehicle":"auto_rickshaw"}},
{"type":"Feature","geometry":{"type":"Point","coordinates":[122.2978012,13.9531734]},"properties":{"bus":"yes","name":"P&0/Raymond Calauag","network":"PH:PUB","operator":"Pong & Oning Transport Corporation;Raymond Transportation Inc.","public_transport":"stop_position"}},
{"type":"Feature","geometry":{"type":"Point","coordinates":[120.999148,14.4747456]},"properties":{"addr:street":"Gatchalian Avenue","name":"Gatchalian Tricycle Terminal","public_transport":"platform"}},
{"type":"Feature","geometry":{"type":"Point","coordinates":[120.9774998,13.8697351]},"properties":{"highway":"bus_stop","name":"Muzon San Luis Road","name:en":"Muzon San Luis Road"}},
{"type":"Feature","geometry":{"type":"Point","coordinates":[120.9244354,14.2957253]},"properties":{"highway":"bus_stop","name":"San Miguel Metal Closure Industrial Plant","public_transport":"platform","route_ref":"EPZA"}},
{"type":"Feature","geometry":{"type":"Point","coordinates":[120.9155486,14.3173289]},"properties":{"bus":"yes","highway":"bus_stop","name":"Camella Homes Tierra Nevada","public_transport":"stop_position","share_taxi":"yes"}},
{"type":"Feature","geometry":{"type":"Point","coordinates":[121.7739679,17.4265226]},"properties":{"highway":"bus_stop","name":"Cabagan Junction"}},
{"type":"Feature","geometry":{"type":"Point","coordinates":[122.3591884,11.7059402]},"properties":{"amenity":"shelter","bench":"yes","description":"waiting shed fo boat crossing Aklan River","ferry":"yes","public_transport":"platform","shelter":"yes"}},
{"type":"Feature","geometry":{"type":"Point","coordinates":[122.5738686,10.6961419]},"properties":{"alt_name":"Iloilo Fastcraft & Roro - Terminal","amenity":"ferry_terminal","cargo":"passengers;vehicle","ferry":"yes","foot":"yes","mooring":"ferry","name":"Iloilo","public_transport":"stop_position","vehicle":"yes"}},
{"type":"Feature","geometry":{"type":"Point","coordinates":[120.201823,13.8160038]},"properties":{"alt_name":"Lubang Island","amenity":"ferry_terminal","cargo":"passengers;vehicle","ferry":"tertiary","mooring":"ferry","name":"Tilik","public_transport":"stop_position"}},
{"type":"Feature","geometry":{"type":"Point","coordinates":[121.0449491,14.3865113]},"properties":{"bus":"yes","highway":"bus_stop","name":"National Road/Susana Heights Exit","network":"LTFRB–National Capital Region","network:wikidata":"Q6483998","operator":"Department of Public Works and Highways","public_transport":"platform","shelter":"yes"}},
{"type":"Feature","geometry":{"type":"Point","coordinates":[120.5739862,15.2228176]},"properties":{"bus":"yes","highway":"bus_stop","name":"Mabalacat to Clark Jeepney Station","public_transport":"platform"}},
{"type":"Feature","geometry":{"type":"Point","coordinates":[120.6589242,15.056713]},"properties":{"bus":"yes","highway":"bus_stop","public_transport":"platform","source":"MGDanting"}},
{"type":"Feature","geometry":{"type":"Point","coordinates":[120.9572306,14.2954179]},"properties":{"bus":"yes","name":"Sampaloc 1 Covered Court","public_transport":"stop_position"}},
{"type":"Feature","geometry":{"type":"Point","coordinates":[120.9818999,14.3445614]},"properties":{"bus":"yes","name":"Salawag Proper","public_transport":"stop_position","route_ref":"32;417"}},
{"type":"Feature","geometry":{"type":"Point","coordinates":[124.797039,11.6360811]},"properties":{"amenity":"ferry_terminal","ferry":"yes","mooring":"yes","name":"Daram Pier 1","public_transport":"stop_position"}},
{"type":"Feature","geometry":{"type":"Point","coordinates":[120.9779022,14.2905184]},"properties":{"highway":"bus_stop","name":"Piela","public_transport":"platform"}},
{"type":"Feature","geometry":{"type":"Point","coordinates":[120.5830445,15.1662445]},"properties":{"bus":"yes","highway":"bus_stop","name":"Friendship Jeepney Terminal","public_transport":"platform","share_taxi":"yes"}},
{"type":"Feature","geometry":{"type":"Point","coordinates":[123.7450392,9.5797469]},"properties":{"FIXME":"add names and proper tags","arivac:name":"L-27-303-001-06","arivac:type_id":"27.000000","arivac:typetxt":"Waiting shed","building":"shed","highway":"bus_stop","shelter":"yes","source":"arivac","source:url":"http://hisdu2.sph.uq.edu.au/arivac/"}},
{"type":"Feature","geometry":{"type":"Point","coordinates":[123.727417,9.58716]},"properties":{"FIXME":"add names and proper tags","arivac:name":"L-27-303-003-01","arivac:type_id":"27.000000","arivac:typetxt":"Waiting shed","building":"shed","highway":"bus_stop","shelter":"yes","source":"arivac","source:url":"http://hisdu2.sph.uq.edu.au/arivac/"}},
{"type":"Feature","geometry":{"type":"Point","coordinates":[123.7246527,9.5876876]},"properties":{"FIXME":"add names and proper tags","arivac:name":"L-27-303-012-02","arivac:type_id":"27.000000","arivac:typetxt":"Waiting shed","building":"shed","highway":"bus_stop","shelter":"yes","source":"arivac","source:url":"http://hisdu2.sph.uq.edu.au/arivac/"}},
{"type":"Feature","geometry":{"type":"Point","coordinates":[123.733231,9.58659]},"properties":{"FIXME":"add names and proper tags","arivac:name":"L-27-303-011-02","arivac:type_id":"27.000000","arivac:typetxt":"Waiting shed","building":"shed","highway":"bus_stop","shelter":"yes","source":"arivac","source:url":"http://hisdu2.sph.uq.edu.au/arivac/"}},
{"type":"Feature","geometry":{"type":"Point","coordinates":[123.741631,9.585629]},"properties":{"FIXME":"add names and proper tags","arivac:name":"L-27-303-001-02","arivac:type_id":"27.000000","arivac:typetxt":"Waiting shed","building":"shed","highway":"bus_stop","shelter":"yes","source":"arivac","source:url":"http://hisdu2.sph.uq.edu.au/arivac/"}},
{"type":"Feature","geometry":{"type":"Point","coordinates":[123.748306,9.586559]},"properties":{"FIXME":"add names and proper tags","arivac:name":"L-27-302-014-05","arivac:type_id":"27.000000","arivac:typetxt":"Waiting shed","building":"shed","highway":"bus_stop","shelter":"yes","source":"arivac","source:url":"http://hisdu2.sph.uq.edu.au/arivac/"}},
{"type":"Feature","geometry":{"type":"Point","coordinates":[123.757164,9.56513]},"properties":{"FIXME":"add names and proper tags","arivac:name":"L-27-305-011-05","arivac:type_id":"27.000000","arivac:typetxt":"Waiting shed","building":"shed","highway":"bus_stop","shelter":"yes","source":"arivac","source:url":"http://hisdu2.sph.uq.edu.au/arivac/"}},
{"type":"Feature","geometry":{"type":"Point","coordinates":[123.807869,9.57123]},"properties":{"FIXME":"add names and proper tags","arivac:name":"L-27-304-001-04","arivac:type_id":"27.000000","arivac:typetxt":"Waiting shed","building":"shed","highway":"bus_stop","shelter":"yes","source":"arivac","source:url":"http://hisdu2.sph.uq.edu.au/arivac/"}},
{"type":"Feature","geometry":{"type":"Point","coordinates":[123.81569,9.5791896]},"properties":{"FIXME":"add names and proper tags","arivac:name":"L-27-206-001-04","arivac:type_id":"27.000000","arivac:typetxt":"Waiting shed","building":"shed","highway":"bus_stop","shelter":"yes","source":"arivac","source:url":"http://hisdu2.sph.uq.edu.au/arivac/"}},
{"type":"Feature","geometry":{"type":"Point","coordinates":[123.77224,9.588799]},"properties":{"FIXME":"add names and proper tags","arivac:name":"L-27-302-001-04","arivac:type_id":"27.000000","arivac:typetxt":"Waiting shed","building":"shed","highway":"bus_stop","shelter":"yes","source":"arivac","source:url":"http://hisdu2.sph.uq.edu.au/arivac/"}},
{"type":"Feature","geometry":{"type":"Point","coordinates":[123.792664,9.596069]},"properties":{"FIXME":"add names and proper tags","arivac:name":"L-27-301-004-04","arivac:type_id":"27.000000","arivac:typetxt":"Waiting shed","building":"shed","highway":"bus_stop","shelter":"yes","source":"arivac","source:url":"http://hisdu2.sph.uq.edu.au/arivac/"}},
{"type":"Feature","geometry":{"type":"Point","coordinates":[123.768886,9.6093247]},"properties":{"FIXME":"add names and proper tags","arivac:name":"L-27-301-003-04","arivac:type_id":"27.000000","arivac:typetxt":"Waiting shed","building":"shed","highway":"bus_stop","shelter":"yes","source":"arivac","source:url":"http://hisdu2.sph.uq.edu.au/arivac/"}},
{"type":"Feature","geometry":{"type":"Point","coordinates":[123.773674,9.605639]},"properties":{"FIXME":"add names and proper tags","arivac:name":"L-27-301-002-04","arivac:type_id":"27.000000","arivac:typetxt":"Waiting shed","building":"shed","highway":"bus_stop","shelter":"yes","source":"arivac","source:url":"http://hisdu2.sph.uq.edu.au/arivac/"}},
{"type":"Feature","geometry":{"type":"Point","coordinates":[123.778816,9.61075]},"properties":{"FIXME":"add names and proper tags","arivac:name":"L-27-301-001-04","arivac:type_id":"27.000000","arivac:typetxt":"Waiting shed","building":"shed","highway":"bus_stop","shelter":"yes","source":"arivac","source:url":"http://hisdu2.sph.uq.edu.au/arivac/"}},
{"type":"Feature","geometry":{"type":"Point","coordinates":[123.795006,9.589029]},"properties":{"FIXME":"add names and proper tags","arivac:name":"L-27-301-005-04","arivac:type_id":"27.000000","arivac:typetxt":"Waiting shed","building":"shed","highway":"bus_stop","shelter":"yes","source":"arivac","source:url":"http://hisdu2.sph.uq.edu.au/arivac/"}},
{"type":"Feature","geometry":{"type":"Point","coordinates":[123.807228,9.60198]},"properties":{"FIXME":"add names and proper tags","arivac:name":"L-27-209-002-04","arivac:type_id":"27.000000","arivac:typetxt":"Waiting shed","building":"shed","highway":"bus_stop","shelter":"yes","source":"arivac","source:url":"http://hisdu2.sph.uq.edu.au/arivac/"}},
{"type":"Feature","geometry":{"type":"Point","coordinates":[123.80278,9.60017]},"properties":{"FIXME":"add names and proper tags","arivac:name":"L-27-209-001-01","arivac:type_id":"27.000000","arivac:typetxt":"Waiting shed","building":"shed","highway":"bus_stop","shelter":"yes","source":"arivac","source:url":"http://hisdu2.sph.uq.edu.au/arivac/"}},
{"type":"Feature","geometry":{"type":"Point","coordinates":[123.81501,9.60507]},"properties":{"FIXME":"add names and proper tags","arivac:name":"L-27-209-003-04","arivac:type_id":"27.000000","arivac:typetxt":"Waiting shed","building":"shed","highway":"bus_stop","shelter":"yes","source":"arivac","source:url":"http://hisdu2.sph.uq.edu.au/arivac/"}},
{"type":"Feature","geometry":{"type":"Point","coordinates":[123.809578,9.60273]},"properties":{"FIXME":"add names and proper tags","arivac:name":"L-27-209-006-01","arivac:type_id":"27.000000","arivac:typetxt":"Waiting shed","building":"shed","highway":"bus_stop","shelter":"yes","source":"arivac","source:url":"http://hisdu2.sph.uq.edu.au/arivac/"}},
{"type":"Feature","geometry":{"type":"Point","coordinates":[123.812035,9.60384]},"properties":{"FIXME":"add names and proper tags","arivac:name":"L-27-209-001-04","arivac:type_id":"27.000000","arivac:typetxt":"Waiting shed","building":"shed","highway":"bus_stop","shelter":"yes","source":"arivac","source:url":"http://hisdu2.sph.uq.edu.au/arivac/"}},
{"type":"Feature","geometry":{"type":"Point","coordinates":[123.815506,9.603769]},"properties":{"FIXME":"add names and proper tags","arivac:name":"L-27-209-004-01","arivac:type_id":"27.000000","arivac:typetxt":"Waiting shed","building":"shed","highway":"bus_stop","shelter":"yes","source":"arivac","source:url":"http://hisdu2.sph.uq.edu.au/arivac/"}},
{"type":"Feature","geometry":{"type":"Point","coordinates":[123.80117,9.62029]},"properties":{"FIXME":"add names and proper tags","arivac:name":"L-27-212-001-04","arivac:type_id":"27.000000","arivac:typetxt":"Waiting shed","building":"shed","highway":"bus_stop","shelter":"yes","source":"arivac","source:url":"http://hisdu2.sph.uq.edu.au/arivac/"}},
{"type":"Feature","geometry":{"type":"Point","coordinates":[123.821114,9.60664]},"properties":{"FIXME":"add names and proper tags","arivac:name":"L-27-209-002-01","arivac:type_id":"27.000000","arivac:typetxt":"Waiting shed","building":"shed","highway":"bus_stop","shelter":"yes","source":"arivac","source:url":"http://hisdu2.sph.uq.edu.au/arivac/"}},
{"type":"Feature","geometry":{"type":"Point","coordinates":[123.823334,9.61182]},"properties":{"FIXME":"add names and proper tags","arivac:name":"L-27-209-005-01","arivac:type_id":"27.000000","arivac:typetxt":"Waiting shed","building":"shed","highway":"bus_stop","shelter":"yes","source":"arivac","source:url":"http://hisdu2.sph.uq.edu.au/arivac/"}},
{"type":"Feature","geometry":{"type":"Point","coordinates":[123.828835,9.609879]},"properties":{"FIXME":"add names and proper tags","arivac:name":"L-27-209-001-02","arivac:type_id":"27.000000","arivac:typetxt":"Waiting shed","building":"shed","highway":"bus_stop","shelter":"yes","source":"arivac","source:url":"http://hisdu2.sph.uq.edu.au/arivac/"}},
{"type":"Feature","geometry":{"type":"Point","coordinates":[123.831055,9.610869]},"properties":{"FIXME":"add names and proper tags","arivac:name":"L-27-209-003-01","arivac:type_id":"27.000000","arivac:typetxt":"Waiting shed","building":"shed","highway":"bus_stop","shelter":"yes","source":"arivac","source:url":"http://hisdu2.sph.uq.edu.au/arivac/"}},
{"type":"Feature","geometry":{"type":"Point","coordinates":[123.817574,9.61695]},"properties":{"FIXME":"add names and proper tags","arivac:name":"L-27-203-008-01","arivac:type_id":"27.000000","arivac:typetxt":"Waiting shed","building":"shed","highway":"bus_stop","shelter":"yes","source":"arivac","source:url":"http://hisdu2.sph.uq.edu.au/arivac/"}},
{"type":"Feature","geometry":{"type":"Point","coordinates":[123.81971,9.62313]},"properties":{"FIXME":"add names and proper tags","arivac:name":"L-27-203-001-03","arivac:type_id":"27.000000","arivac:typetxt":"Waiting shed","building":"shed","highway":"bus_stop","shelter":"yes","source":"arivac","source:url":"http://hisdu2.sph.uq.edu.au/arivac/"}},
{"type":"Feature","geometry":{"type":"Point","coordinates":[123.8254246,9.6234375]},"properties":{"FIXME":"add names and proper tags","arivac:name":"L-27-201-011-06","arivac:type_id":"27.000000","arivac:typetxt":"Waiting shed","building":"shed","highway":"bus_stop","shelter":"yes","source":"arivac","source:url":"http://hisdu2.sph.uq.edu.au/arivac/"}},
{"type":"Feature","geometry":{"type":"Point","coordinates":[123.8256,9.6277]},"properties":{"FIXME":"add names and proper tags","arivac:name":"L-27-201-002-04","arivac:type_id":"27.000000","arivac:typetxt":"Waiting shed","building":"shed","highway":"bus_stop","shelter":"yes","source":"arivac","source:url":"http://hisdu2.sph.uq.edu.au/arivac/"}},
{"type":"Feature","geometry":{"type":"Point","coordinates":[123.823616,9.6342]},"properties":{"FIXME":"add names and proper tags","arivac:name":"L-27-203-006-05","arivac:type_id":"27.000000","arivac:typetxt":"Waiting shed","building":"shed","highway":"bus_stop","shelter":"yes","source":"arivac","source:url":"http://hisdu2.sph.uq.edu.au/arivac/"}},
{"type":"Feature","geometry":{"type":"Point","coordinates":[123.829506,9.62912]},"properties":{"FIXME":"add names and proper tags","arivac:name":"L-27-201-002-06","arivac:type_id":"27.000000","arivac:typetxt":"Waiting shed","building":"shed","highway":"bus_stop","shelter":"yes","source":"arivac","source:url":"http://hisdu2.sph.uq.edu.au/arivac/"}},
{"type":"Feature","geometry":{"type":"Point","coordinates":[123.839218,9.61456]},"properties":{"FIXME":"add names and proper tags","arivac:name":"L-27-204-017-06","arivac:type_id":"27.000000","arivac:typetxt":"Waiting shed","building":"shed","highway":"bus_stop","shelter":"yes","source":"arivac","source:url":"http://hisdu2.sph.uq.edu.au/arivac/"}},
{"type":"Feature","geometry":{"type":"Point","coordinates":[123.84150699999999,9.61578]},"properties":{"FIXME":"add names and proper tags","arivac:name":"L-27-204-018-06","arivac:type_id":"27.000000","arivac:typetxt":"Waiting shed","building":"shed","highway":"bus_stop","shelter":"yes","source":"arivac","source:url":"http://hisdu2.sph.uq.edu.au/arivac/"}},
{"type":"Feature","geometry":{"type":"Point","coordinates":[123.837898,9.614059]},"properties":{"FIXME":"add names and proper tags","arivac:name":"L-27-209-001-06","arivac:type_id":"27.000000","arivac:typetxt":"Waiting shed","building":"shed","highway":"bus_stop","shelter":"yes","source":"arivac","source:url":"http://hisdu2.sph.uq.edu.au/arivac/"}},
{"type":"Feature","geometry":{"type":"Point","coordinates":[123.846138,9.61806]},"properties":{"FIXME":"add names and proper tags","arivac:name":"L-27-204-001-04","arivac:type_id":"27.000000","arivac:typetxt":"Waiting shed","building":"shed","highway":"bus_stop","shelter":"yes","source":"arivac","source:url":"http://hisdu2.sph.uq.edu.au/arivac/"}},
{"type":"Feature","geometry":{"type":"Point","coordinates":[123.846016,9.61808]},"properties":{"FIXME":"add names and proper tags","arivac:name":"L-27-204-001-05","arivac:type_id":"27.000000","arivac:typetxt":"Waiting shed","building":"shed","highway":"bus_stop","shelter":"yes","source":"arivac","source:url":"http://hisdu2.sph.uq.edu.au/arivac/"}},
{"type":"Feature","geometry":{"type":"Point","coordinates":[123.847694,9.61887]},"properties":{"FIXME":"add names and proper tags","arivac:name":"L-27-204-012-06","arivac:type_id":"27.000000","arivac:typetxt":"Waiting shed","building":"shed","highway":"bus_stop","shelter":"yes","source":"arivac","source:url":"http://hisdu2.sph.uq.edu.au/arivac/"}},
{"type":"Feature","geometry":{"type":"Point","coordinates":[123.852776,9.62129]},"properties":{"FIXME":"add names and proper tags","arivac:name":"L-27-204-001-04","arivac:type_id":"27.000000","arivac:typetxt":"Waiting shed","building":"shed","highway":"bus_stop","shelter":"yes","source":"arivac","source:url":"http://hisdu2.sph.uq.edu.au/arivac/"}},
{"type":"Feature","geometry":{"type":"Point","coordinates":[123.860146,9.60359]},"properties":{"FIXME":"add names and proper tags","arivac:name":"L-27-210-002-06","arivac:type_id":"27.000000","arivac:typetxt":"Waiting shed","building":"shed","highway":"bus_stop","shelter":"yes","source":"arivac","source:url":"http://hisdu2.sph.uq.edu.au/arivac/"}},
{"type":"Feature","geometry":{"type":"Point","coordinates":[123.863197,9.6103]},"properties":{"FIXME":"add names and proper tags","arivac:name":"L-27-202-001-02","arivac:type_id":"27.000000","arivac:typetxt":"Waiting shed","building":"shed","highway":"bus_stop","shelter":"yes","source":"arivac","source:url":"http://hisdu2.sph.uq.edu.au/arivac/"}},
{"type":"Feature","geometry":{"type":"Point","coordinates":[123.860153,9.61238]},"properties":{"FIXME":"add names and proper tags","arivac:name":"L-27-202-001-03","arivac:type_id":"27.000000","arivac:typetxt":"Waiting shed","building":"shed","highway":"bus_stop","shelter":"yes","source":"arivac","source:url":"http://hisdu2.sph.uq.edu.au/arivac/"}},
{"type":"Feature","geometry":{"type":"Point","coordinates":[123.864944,9.61658]},"properties":{"FIXME":"add names and proper tags","arivac:name":"L-27-202-001-04","arivac:type_id":"27.000000","arivac:typetxt":"Waiting shed","building":"shed","highway":"bus_stop","shelter":"yes","source":"arivac","source:url":"http://hisdu2.sph.uq.edu.au/arivac/"}},
{"type":"Feature","geometry":{"type":"Point","coordinates":[123.865898,9.615419]},"properties":{"FIXME":"add names and proper tags","arivac:name":"L-27-202-001-03","arivac:type_id":"27.000000","arivac:typetxt":"Waiting shed","building":"shed","highway":"bus_stop","shelter":"yes","source":"arivac","source:url":"http://hisdu2.sph.uq.edu.au/arivac/"}},
{"type":"Feature","geometry":{"type":"Point","coordinates":[123.867973,9.61607]},"properties":{"FIXME":"add names and proper tags","arivac:name":"L-27-202-001-02","arivac:type_id":"27.000000","arivac:typetxt":"Waiting shed","building":"shed","highway":"bus_stop","shelter":"yes","source":"arivac","source:url":"http://hisdu2.sph.uq.edu.au/arivac/"}},
{"type":"Feature","geometry":{"type":"Point","coordinates":[123.840599,9.62792]},"properties":{"FIXME":"add names and proper tags","arivac:name":"L-27-201-010-06","arivac:type_id":"27.000000","arivac:typetxt":"Waiting shed","building":"shed","highway":"bus_stop","shelter":"yes","source":"arivac","source:url":"http://hisdu2.sph.uq.edu.au/arivac/"}},
{"type":"Feature","geometry":{"type":"Point","coordinates":[123.839806,9.63253]},"properties":{"FIXME":"add names and proper tags","arivac:name":"L-27-201-001-04","arivac:type_id":"27.000000","arivac:typetxt":"Waiting shed","building":"shed","highway":"bus_stop","shelter":"yes","source":"arivac","source:url":"http://hisdu2.sph.uq.edu.au/arivac/"}},
{"type":"Feature","geometry":{"type":"Point","coordinates":[123.850304,9.63315]},"properties":{"FIXME":"add names and proper tags","arivac:name":"L-27-211-001-02","arivac:type_id":"27.000000","arivac:typetxt":"Waiting shed","building":"shed","highway":"bus_stop","shelter":"yes","source":"arivac","source:url":"http://hisdu2.sph.uq.edu.au/arivac/"}},
{"type":"Feature","geometry":{"type":"Point","coordinates":[123.860176,9.62482]},"properties":{"FIXME":"add names and proper tags","arivac:name":"L-27-207-002-02","arivac:type_id":"27.000000","arivac:typetxt":"Waiting shed","building":"shed","highway":"bus_stop","shelter":"yes","source":"arivac","source:url":"http://hisdu2.sph.uq.edu.au/arivac/"}},
{"type":"Feature","geometry":{"type":"Point","coordinates":[123.86544,9.624909]},"properties":{"FIXME":"add names and proper tags","arivac:name":"L-27-207-001-02","arivac:type_id":"27.000000","arivac:typetxt":"Waiting shed","building":"shed","highway":"bus_stop","shelter":"yes","source":"arivac","source:url":"http://hisdu2.sph.uq.edu.au/arivac/"}},
{"type":"Feature","geometry":{"type":"Point","coordinates":[123.874153,9.64587]},"properties":{"FIXME":"add names and proper tags","arivac:name":"L-27-116-025-05","arivac:type_id":"27.000000","arivac:typetxt":"Waiting shed","building":"shed","highway":"bus_stop","shelter":"yes","source":"arivac","source:url":"http://hisdu2.sph.uq.edu.au/arivac/"}},
{"type":"Feature","geometry":{"type":"Point","coordinates":[123.871078,9.645889]},"properties":{"FIXME":"add names and proper tags","arivac:name":"L-27-116-026-07","arivac:type_id":"27.000000","arivac:typetxt":"Waiting shed","building":"shed","highway":"bus_stop","shelter":"yes","source":"arivac","source:url":"http://hisdu2.sph.uq.edu.au/arivac/"}},
{"type":"Feature","geometry":{"type":"Point","coordinates":[123.85231,9.65209]},"properties":{"FIXME":"add names and proper tags","amenity":"bus_station","arivac:name":"L-49-104-048-05","arivac:type_id":"49.000000","arivac:typetxt":"Terminal","source":"arivac","source:url":"http://hisdu2.sph.uq.edu.au/arivac/"}},
{"type":"Feature","geometry":{"type":"Point","coordinates":[123.858719,9.65396]},"properties":{"arivac:name":"L-27-113-038-06","arivac:type_id":"27.000000","arivac:typetxt":"Waiting shed","building":"shed","bus":"yes","fixme":"add names and proper tags","highway":"bus_stop","public_transport":"platform","shelter":"yes","source":"arivac","source:url":"http://hisdu2.sph.uq.edu.au/arivac/"}},
{"type":"Feature","geometry":{"type":"Point","coordinates":[123.8754926,9.6527078]},"properties":{"FIXME":"add names and proper tags","arivac:name":"L-27-116-026-05","arivac:type_id":"27.000000","arivac:typetxt":"Waiting shed","building":"shed","highway":"bus_stop","shelter":"yes","source":"arivac","source:url":"http://hisdu2.sph.uq.edu.au/arivac/"}},
{"type":"Feature","geometry":{"type":"Point","coordinates":[123.867279,9.659599]},"properties":{"FIXME":"add names and proper tags","arivac:name":"L-27-117-008-06","arivac:type_id":"27.000000","arivac:typetxt":"Waiting shed","building":"shed","highway":"bus_stop","shelter":"yes","source":"arivac","source:url":"http://hisdu2.sph.uq.edu.au/arivac/"}},
{"type":"Feature","geometry":{"type":"Point","coordinates":[123.867447,9.66195]},"properties":{"FIXME":"add names and proper tags","arivac:name":"L-27-117-013-06","arivac:type_id":"27.000000","arivac:typetxt":"Waiting shed","building":"shed","highway":"bus_stop","shelter":"yes","source":"arivac","source:url":"http://hisdu2.sph.uq.edu.au/arivac/"}},
{"type":"Feature","geometry":{"type":"Point","coordinates":[123.8848827,9.626575]},"properties":{"FIXME":"add names and proper tags","arivac:name":"L-27-101-014-04","arivac:type_id":"27.000000","arivac:typetxt":"Waiting shed","building":"shed","highway":"bus_stop","shelter":"yes","source":"arivac","source:url":"http://hisdu2.sph.uq.edu.au/arivac/"}},
{"type":"Feature","geometry":{"type":"Point","coordinates":[123.8875743,9.6266637]},"properties":{"FIXME":"add names and proper tags","arivac:name":"L-27-403-001-06","arivac:type_id":"27.000000","arivac:typetxt":"Waiting shed","building":"shed","highway":"bus_stop","shelter":"yes","source":"arivac","source:url":"http://hisdu2.sph.uq.edu.au/arivac/"}},
{"type":"Feature","geometry":{"type":"Point","coordinates":[123.885223,9.63816]},"properties":{"FIXME":"add names and proper tags","arivac:name":"L-27-101-013-04","arivac:type_id":"27.000000","arivac:typetxt":"Waiting shed","building":"shed","highway":"bus_stop","shelter":"yes","source":"arivac","source:url":"http://hisdu2.sph.uq.edu.au/arivac/"}},
{"type":"Feature","geometry":{"type":"Point","coordinates":[123.9040704,9.6242484]},"properties":{"FIXME":"add names and proper tags","arivac:name":"L-27-401-001-02","arivac:type_id":"27.000000","arivac:typetxt":"Waiting shed","building":"shed","highway":"bus_stop","shelter":"yes","source":"arivac","source:url":"http://hisdu2.sph.uq.edu.au/arivac/"}},
{"type":"Feature","geometry":{"type":"Point","coordinates":[123.87059,9.66992]},"properties":{"FIXME":"add names and proper tags","arivac:name":"L-27-117-005-04","arivac:type_id":"27.000000","arivac:typetxt":"Waiting shed","building":"shed","highway":"bus_stop","shelter":"yes","source":"arivac","source:url":"http://hisdu2.sph.uq.edu.au/arivac/"}},
{"type":"Feature","geometry":{"type":"Point","coordinates":[123.870272,9.6724007]},"properties":{"FIXME":"add names and proper tags","arivac:name":"L-27-117-002-04","arivac:type_id":"27.000000","arivac:typetxt":"Waiting shed","building":"shed","highway":"bus_stop","shelter":"yes","source":"arivac","source:url":"http://hisdu2.sph.uq.edu.au/arivac/"}},
{"type":"Feature","geometry":{"type":"Point","coordinates":[123.870239,9.67325]},"properties":{"FIXME":"add names and proper tags","arivac:name":"L-27-117-003-04","arivac:type_id":"27.000000","arivac:typetxt":"Waiting shed","building":"shed","highway":"bus_stop","shelter":"yes","source":"arivac","source:url":"http://hisdu2.sph.uq.edu.au/arivac/"}},
{"type":"Feature","geometry":{"type":"Point","coordinates":[123.870346,9.67352]},"properties":{"FIXME":"add names and proper tags","arivac:name":"L-27-117-001-04","arivac:type_id":"27.000000","arivac:typetxt":"Waiting shed","building":"shed","highway":"bus_stop","shelter":"yes","source":"arivac","source:url":"http://hisdu2.sph.uq.edu.au/arivac/"}},
{"type":"Feature","geometry":{"type":"Point","coordinates":[123.870476,9.67535]},"properties":{"FIXME":"add names and proper tags","arivac:name":"L-27-117-003-06","arivac:type_id":"27.000000","arivac:typetxt":"Waiting shed","building":"shed","highway":"bus_stop","shelter":"yes","source":"arivac","source:url":"http://hisdu2.sph.uq.edu.au/arivac/"}},
{"type":"Feature","geometry":{"type":"Point","coordinates":[123.87912,9.67564]},"properties":{"FIXME":"add names and proper tags","arivac:name":"L-27-108-001-04","arivac:type_id":"27.000000","arivac:typetxt":"Waiting shed","building":"shed","highway":"bus_stop","shelter":"yes","source":"arivac","source:url":"http://hisdu2.sph.uq.edu.au/arivac/"}},
{"type":"Feature","geometry":{"type":"Point","coordinates":[123.878494,9.6768]},"properties":{"FIXME":"add names and proper tags","arivac:name":"L-27-108-003-06","arivac:type_id":"27.000000","arivac:typetxt":"Waiting shed","building":"shed","highway":"bus_stop","shelter":"yes","source":"arivac","source:url":"http://hisdu2.sph.uq.edu.au/arivac/"}},
{"type":"Feature","geometry":{"type":"Point","coordinates":[123.866203,9.68065]},"properties":{"FIXME":"add names and proper tags","arivac:name":"L-27-115-022-07","arivac:type_id":"27.000000","arivac:typetxt":"Waiting shed","building":"shed","highway":"bus_stop","shelter":"yes","source":"arivac","source:url":"http://hisdu2.sph.uq.edu.au/arivac/"}},
{"type":"Feature","geometry":{"type":"Point","coordinates":[123.8608215,9.6808986]},"properties":{"FIXME":"add names and proper tags","arivac:name":"L-27-115-040-07","arivac:type_id":"27.000000","arivac:typetxt":"Waiting shed","building":"shed","description":"Waiting Shade","highway":"bus_stop","name":"Salazar","shelter":"yes","source":"arivac","source:url":"http://hisdu2.sph.uq.edu.au/arivac/"}},
{"type":"Feature","geometry":{"type":"Point","coordinates":[123.880898,9.68594]},"properties":{"FIXME":"add names and proper tags","arivac:name":"L-27-109-006-08","arivac:type_id":"27.000000","arivac:typetxt":"Waiting shed","building":"shed","highway":"bus_stop","shelter":"yes","source":"arivac","source:url":"http://hisdu2.sph.uq.edu.au/arivac/"}},
{"type":"Feature","geometry":{"type":"Point","coordinates":[123.871864,9.71062]},"properties":{"FIXME":"add names and proper tags","arivac:name":"L-27-504-002-02","arivac:type_id":"27.000000","arivac:typetxt":"Waiting shed","building":"shed","highway":"bus_stop","shelter":"yes","source":"arivac","source:url":"http://hisdu2.sph.uq.edu.au/arivac/"}},
{"type":"Feature","geometry":{"type":"Point","coordinates":[123.890129,9.68297]},"properties":{"FIXME":"add names and proper tags","arivac:name":"L-27-103-001-04","arivac:type_id":"27.000000","arivac:typetxt":"Waiting shed","building":"shed","highway":"bus_stop","shelter":"yes","source":"arivac","source:url":"http://hisdu2.sph.uq.edu.au/arivac/"}},
{"type":"Feature","geometry":{"type":"Point","coordinates":[123.887177,9.67647]},"properties":{"FIXME":"add names and proper tags","arivac:name":"L-27-108-005-04","arivac:type_id":"27.000000","arivac:typetxt":"Waiting shed","building":"shed","highway":"bus_stop","shelter":"yes","source":"arivac","source:url":"http://hisdu2.sph.uq.edu.au/arivac/"}},
{"type":"Feature","geometry":{"type":"Point","coordinates":[123.8807633,9.7228572]},"properties":{"FIXME":"add names and proper tags","arivac:name":"L-27-502-001-04","arivac:type_id":"27.000000","arivac:typetxt":"Waiting shed","building":"shed","highway":"bus_stop","shelter":"yes","source":"arivac","source:url":"http://hisdu2.sph.uq.edu.au/arivac/"}},
{"type":"Feature","geometry":{"type":"Point","coordinates":[123.921623,9.74158]},"properties":{"FIXME":"add names and proper tags","arivac:name":"L-27-503-013-07","arivac:type_id":"27.000000","arivac:typetxt":"Waiting shed","building":"shed","highway":"bus_stop","shelter":"yes","source":"arivac","source:url":"http://hisdu2.sph.uq.edu.au/arivac/"}},
{"type":"Feature","geometry":{"type":"Point","coordinates":[123.939346,9.73246]},"properties":{"FIXME":"add names and proper tags","arivac:name":"L-27-501-029-07","arivac:type_id":"27.000000","arivac:typetxt":"Waiting shed","building":"shed","highway":"bus_stop","shelter":"yes","source":"arivac","source:url":"http://hisdu2.sph.uq.edu.au/arivac/"}},
{"type":"Feature","geometry":{"type":"Point","coordinates":[123.944611,9.72902]},"properties":{"FIXME":"add names and proper tags","arivac:name":"L-27-501-028-07","arivac:type_id":"27.000000","arivac:typetxt":"Waiting shed","building":"shed","highway":"bus_stop","shelter":"yes","source":"arivac","source:url":"http://hisdu2.sph.uq.edu.au/arivac/"}},
{"type":"Feature","geometry":{"type":"Point","coordinates":[123.936211,9.74833]},"properties":{"FIXME":"add names and proper tags","arivac:name":"L-27-503-003-08","arivac:type_id":"27.000000","arivac:typetxt":"Waiting shed","building":"shed","highway":"bus_stop","shelter":"yes","source":"arivac","source:url":"http://hisdu2.sph.uq.edu.au/arivac/"}},
{"type":"Feature","geometry":{"type":"Point","coordinates":[123.93927,9.74907]},"properties":{"FIXME":"add names and proper tags","arivac:name":"L-27-503-001-08","arivac:type_id":"27.000000","arivac:typetxt":"Waiting shed","building":"shed","highway":"bus_stop","shelter":"yes","source":"arivac","source:url":"http://hisdu2.sph.uq.edu.au/arivac/"}},
{"type":"Feature","geometry":{"type":"Point","coordinates":[123.95285,9.73577]},"properties":{"FIXME":"add names and proper tags","arivac:name":"L-27-603-010-05","arivac:type_id":"27.000000","arivac:typetxt":"Waiting shed","building":"shed","highway":"bus_stop","shelter":"yes","source":"arivac","source:url":"http://hisdu2.sph.uq.edu.au/arivac/"}},
{"type":"Feature","geometry":{"type":"Point","coordinates":[123.966873,9.7549]},"properties":{"FIXME":"add names and proper tags","arivac:name":"L-27-605-005-02","arivac:type_id":"27.000000","arivac:typetxt":"Waiting shed","building":"shed","highway":"bus_stop","shelter":"yes","source":"arivac","source:url":"http://hisdu2.sph.uq.edu.au/arivac/"}},
{"type":"Feature","geometry":{"type":"Point","coordinates":[123.977936,9.73067]},"properties":{"FIXME":"add names and proper tags","arivac:name":"L-27-603-005-05","arivac:type_id":"27.000000","arivac:typetxt":"Waiting shed","building":"shed","highway":"bus_stop","shelter":"yes","source":"arivac","source:url":"http://hisdu2.sph.uq.edu.au/arivac/"}},
{"type":"Feature","geometry":{"type":"Point","coordinates":[123.98204,9.75029]},"properties":{"FIXME":"add names and proper tags","arivac:name":"L-27-602-015-07","arivac:type_id":"27.000000","arivac:typetxt":"Waiting shed","building":"shed","highway":"bus_stop","shelter":"yes","source":"arivac","source:url":"http://hisdu2.sph.uq.edu.au/arivac/"}},
{"type":"Feature","geometry":{"type":"Point","coordinates":[123.993309,9.74613]},"properties":{"FIXME":"add names and proper tags","arivac:name":"L-27-602-014-05","arivac:type_id":"27.000000","arivac:typetxt":"Waiting shed","building":"shed","highway":"bus_stop","shelter":"yes","source":"arivac","source:url":"http://hisdu2.sph.uq.edu.au/arivac/"}},
{"type":"Feature","geometry":{"type":"Point","coordinates":[123.991859,9.75177]},"properties":{"FIXME":"add names and proper tags","arivac:name":"L-27-602-013-05","arivac:type_id":"27.000000","arivac:typetxt":"Waiting shed","building":"shed","highway":"bus_stop","shelter":"yes","source":"arivac","source:url":"http://hisdu2.sph.uq.edu.au/arivac/"}},
{"type":"Feature","geometry":{"type":"Point","coordinates":[123.98304,9.76313]},"properties":{"FIXME":"add names and proper tags","arivac:name":"L-27-602-026-05","arivac:type_id":"27.000000","arivac:typetxt":"Waiting shed","building":"shed","highway":"bus_stop","shelter":"yes","source":"arivac","source:url":"http://hisdu2.sph.uq.edu.au/arivac/"}},
{"type":"Feature","geometry":{"type":"Point","coordinates":[123.983086,9.76309]},"properties":{"FIXME":"add names and proper tags","arivac:name":"L-27-605-001-02","arivac:type_id":"27.000000","arivac:typetxt":"Waiting shed","building":"shed","highway":"bus_stop","shelter":"yes","source":"arivac","source:url":"http://hisdu2.sph.uq.edu.au/arivac/"}},
{"type":"Feature","geometry":{"type":"Point","coordinates":[124.003433,9.773459]},"properties":{"arivac:name":"L-27-602-007-07","arivac:type_id":"27.000000","arivac:typetxt":"Waiting shed","building":"shed","bus":"yes","fixme":"add names and proper tags","highway":"bus_stop","public_transport":"platform","shelter":"yes","source":"arivac","source:url":"http://hisdu2.sph.uq.edu.au/arivac/"}},
{"type":"Feature","geometry":{"type":"Point","coordinates":[123.973679,9.77816]},"properties":{"FIXME":"add names and proper tags","arivac:name":"L-27-606-001-04","arivac:type_id":"27.000000","arivac:typetxt":"Waiting shed","building":"shed","highway":"bus_stop","shelter":"yes","source":"arivac","source:url":"http://hisdu2.sph.uq.edu.au/arivac/"}},
{"type":"Feature","geometry":{"type":"Point","coordinates":[123.985909,9.79049]},"properties":{"FIXME":"add names and proper tags","arivac:name":"L-27-606-002-04","arivac:type_id":"27.000000","arivac:typetxt":"Waiting shed","building":"shed","highway":"bus_stop","shelter":"yes","source":"arivac","source:url":"http://hisdu2.sph.uq.edu.au/arivac/"}},
{"type":"Feature","geometry":{"type":"Point","coordinates":[123.974533,9.79228]},"properties":{"FIXME":"add names and proper tags","arivac:name":"L-27-606-003-04","arivac:type_id":"27.000000","arivac:typetxt":"Waiting shed","building":"shed","highway":"bus_stop","shelter":"yes","source":"arivac","source:url":"http://hisdu2.sph.uq.edu.au/arivac/"}},
{"type":"Feature","geometry":{"type":"Point","coordinates":[123.98761,9.80192]},"properties":{"FIXME":"add names and proper tags","arivac:name":"L-27-606-002-06","arivac:type_id":"27.000000","arivac:typetxt":"Waiting shed","building":"shed","highway":"bus_stop","shelter":"yes","source":"arivac","source:url":"http://hisdu2.sph.uq.edu.au/arivac/"}},
{"type":"Feature","geometry":{"type":"Point","coordinates":[124.048744,9.794539]},"properties":{"FIXME":"add names and proper tags","arivac:name":"L-27-601-002-04","arivac:type_id":"27.000000","arivac:typetxt":"Waiting shed","building":"shed","highway":"bus_stop","shelter":"yes","source":"arivac","source:url":"http://hisdu2.sph.uq.edu.au/arivac/"}},
{"type":"Feature","geometry":{"type":"Point","coordinates":[124.048874,9.80128]},"properties":{"FIXME":"add names and proper tags","arivac:name":"L-27-601-001-04","arivac:type_id":"27.000000","arivac:typetxt":"Waiting shed","building":"shed","highway":"bus_stop","shelter":"yes","source":"arivac","source:url":"http://hisdu2.sph.uq.edu.au/arivac/"}},
{"type":"Feature","geometry":{"type":"Point","coordinates":[124.040146,9.8084]},"properties":{"FIXME":"add names and proper tags","arivac:name":"L-27-601-003-04","arivac:type_id":"27.000000","arivac:typetxt":"Waiting shed","building":"shed","highway":"bus_stop","shelter":"yes","source":"arivac","source:url":"http://hisdu2.sph.uq.edu.au/arivac/"}},
{"type":"Feature","geometry":{"type":"Point","coordinates":[124.054634,9.807759]},"properties":{"FIXME":"add names and proper tags","arivac:name":"L-27-601-007-06","arivac:type_id":"27.000000","arivac:typetxt":"Waiting shed","building":"shed","highway":"bus_stop","shelter":"yes","source":"arivac","source:url":"http://hisdu2.sph.uq.edu.au/arivac/"}},
{"type":"Feature","geometry":{"type":"Point","coordinates":[124.297079,10.6373481]},"properties":{"amenity":"ferry_terminal","cargo":"passengers;vehicle","ferry":"yes","mooring":"ferry","name":"Consuelo Port","public_transport":"stop_position"}},
{"type":"Feature","geometry":{"type":"Point","coordinates":[123.9195629,10.3109986]},"properties":{"bus":"yes","highway":"bus_stop","name":"SM City Cebu Traveller’s Lounge","public_transport":"platform"}},
{"type":"Feature","geometry":{"type":"Point","coordinates":[121.0868638,14.6220685]},"properties":{"amenity":"jeepney_station","jeepney":"yes","name":"Jeepney Stop","note":"20-MAR-10 12:19:43PM","public_transport":"stop_position","source":"rally & andre"}},
{"type":"Feature","geometry":{"type":"Point","coordinates":[121.0860627,14.6223745]},"properties":{"addr:city":"Pasig","addr:province":"Metro Manila","amenity":"jeepney_station","jeepney":"yes","note":"20-MAR-10 12:36:20PM","public_transport":"stop_position","source":"rally & andre"}},
{"type":"Feature","geometry":{"type":"Point","coordinates":[121.085013,14.623403]},"properties":{"addr:city":"Pasig","addr:province":"Metro Manila","amenity":"jeepney_station","jeepney":"yes","name":"Jeepney Stop","note":"20-MAR-10 12:35:44PM","public_transport":"stop_position","source":"rally & andre"}},
{"type":"Feature","geometry":{"type":"Point","coordinates":[121.085142,14.6237909]},"properties":{"amenity":"jeepney_station","jeepney":"yes","name":"Jeepney Stop","note":"20-MAR-10 12:23:32PM","public_transport":"stop_position","source":"rally & andre"}},
{"type":"Feature","geometry":{"type":"Point","coordinates":[121.0839732,14.6245557]},"properties":{"bus":"yes","name":"SM Marikina","public_transport":"stop_position","share_taxi":"yes"}},
{"type":"Feature","geometry":{"type":"Point","coordinates":[121.0810697,14.6274888]},"properties":{"bench":"yes","mapillary":"QQ166LFcWVf3NT1SpuDrty","name":"FVR Road","note":"20-MAR-10 12:34:06PM","public_transport":"platform","shelter":"yes","source":"rally & andre"}},
{"type":"Feature","geometry":{"type":"Point","coordinates":[121.092248,14.6188789]},"properties":{"bench":"no","bin":"no","bus":"yes","highway":"bus_stop","lit":"no","name":"J. P. Rizal","note":"20-MAR-10 12:16:07PM","public_transport":"platform","shelter":"yes","source":"rally & andre"}},
{"type":"Feature","geometry":{"type":"Point","coordinates":[121.096174,14.629847]},"properties":{"amenity":"jeepney_station","jeepney":"yes","name":"Jeepney Stop","note":"20-MAR-10 3:19:59PM","public_transport":"stop_position","source":"rally & andre"}},
{"type":"Feature","geometry":{"type":"Point","coordinates":[121.11226,14.623028]},"properties":{"addr:province":"Rizal","amenity":"jeepney_station","jeepney":"yes","name":"Jeepney Stop","note":"20-MAR-10 2:29:06PM","public_transport":"stop_position","source":"rally & andre"}},
{"type":"Feature","geometry":{"type":"Point","coordinates":[121.1160666,14.6238012]},"properties":{"addr:province":"Rizal","amenity":"jeepney_station","jeepney":"yes","name":"Jeepney Stop","note":"20-MAR-10 2:25:32PM","public_transport":"stop_position","source":"rally & andre"}},
{"type":"Feature","geometry":{"type":"Point","coordinates":[121.2446266,14.1602626]},"properties":{"bus":"yes","public_transport":"stop_position"}},
{"type":"Feature","geometry":{"type":"Point","coordinates":[121.0526479,14.6225699]},"properties":{"amenity":"bus_station","bus":"yes","check_date":"2026-04-14","name":"Gateway Plaza UV Express Station","public_transport":"station"}},